{
"type": "FeatureCollection",
"crs": { "type": "name", "properties": { "name": "urn:ogc:def:crs:OGC:1.3:CRS84" } },
                                                                                
"features": [
{ "type": "Feature", "properties": { "address": "AANENSEN COURT 3094", "lat": -37.72092567, "lon": 145.1297175, "sum_dwll": 2 }, "geometry": { "type": "Point", "coordinates": [ 145.1297175, -37.72092567 ] } },
{ "type": "Feature", "properties": { "address": "AARON COURT 3818", "lat": -38.14328443, "lon": 145.86322250000001, "sum_dwll": 2 }, "geometry": { "type": "Point", "coordinates": [ 145.86322250000001, -38.14328443 ] } },
{ "type": "Feature", "properties": { "address": "ABALONE COURT 3226", "lat": -38.2623135, "lon": 144.5405121, "sum_dwll": 1 }, "geometry": { "type": "Point", "coordinates": [ 144.5405121, -38.2623135 ] } },
{ "type": "Feature", "properties": { "address": "ABBEY CLOSE 3556", "lat": -36.71012473, "lon": 144.2701648, "sum_dwll": 1 }, "geometry": { "type": "Point", "coordinates": [ 144.2701648, -36.71012473 ] } },
{ "type": "Feature", "properties": { "address": "ABBEY COURT 3216", "lat": -38.19676376, "lon": 144.33357380000001, "sum_dwll": 1 }, "geometry": { "type": "Point", "coordinates": [ 144.33357380000001, -38.19676376 ] } },
{ "type": "Feature", "properties": { "address": "ABBEYGATE WAY 3977", "lat": -38.0993195, "lon": 145.25187460000001, "sum_dwll": 2 }, "geometry": { "type": "Point", "coordinates": [ 145.25187460000001, -38.0993195 ] } },
{ "type": "Feature", "properties": { "address": "ABBIN AVENUE 3165", "lat": -37.93183995, "lon": 145.0530259, "sum_dwll": 4 }, "geometry": { "type": "Point", "coordinates": [ 145.0530259, -37.93183995 ] } },
{ "type": "Feature", "properties": { "address": "ABBOT COURT 3150", "lat": -37.89354801, "lon": 145.1453635, "sum_dwll": 1 }, "geometry": { "type": "Point", "coordinates": [ 145.1453635, -37.89354801 ] } },
{ "type": "Feature", "properties": { "address": "ABBOTSFORD LANE 3023", "lat": -37.73726431, "lon": 144.7407701, "sum_dwll": 1 }, "geometry": { "type": "Point", "coordinates": [ 144.7407701, -37.73726431 ] } },
{ "type": "Feature", "properties": { "address": "ABBOTSFORD STREET 3051", "lat": -37.79894694, "lon": 144.9461431, "sum_dwll": 2 }, "geometry": { "type": "Point", "coordinates": [ 144.9461431, -37.79894694 ] } },
{ "type": "Feature", "properties": { "address": "ABBOTSFORD STREET 3067", "lat": -37.80180077, "lon": 144.99958910000001, "sum_dwll": 2 }, "geometry": { "type": "Point", "coordinates": [ 144.99958910000001, -37.80180077 ] } },
{ "type": "Feature", "properties": { "address": "ABBOTSLEY ROAD 3750", "lat": -37.6192046, "lon": 145.014935, "sum_dwll": 12 }, "geometry": { "type": "Point", "coordinates": [ 145.014935, -37.6192046 ] } },
{ "type": "Feature", "properties": { "address": "ABBOTT GROVE 3068", "lat": -37.7890767, "lon": 144.9989857, "sum_dwll": 31 }, "geometry": { "type": "Point", "coordinates": [ 144.9989857, -37.7890767 ] } },
{ "type": "Feature", "properties": { "address": "ABBOTT STREET 3191", "lat": -37.94923661, "lon": 145.0084614, "sum_dwll": 7 }, "geometry": { "type": "Point", "coordinates": [ 145.0084614, -37.94923661 ] } },
{ "type": "Feature", "properties": { "address": "ABBOTT STREET 3338", "lat": -37.71278142, "lon": 144.5587653, "sum_dwll": 12 }, "geometry": { "type": "Point", "coordinates": [ 144.5587653, -37.71278142 ] } },
{ "type": "Feature", "properties": { "address": "ABBY ROAD 3950", "lat": -38.44057867, "lon": 145.81483750000001, "sum_dwll": 2 }, "geometry": { "type": "Point", "coordinates": [ 145.81483750000001, -38.44057867 ] } },
{ "type": "Feature", "properties": { "address": "ABERCARN AVENUE 3064", "lat": -37.61188657, "lon": 144.9383612, "sum_dwll": 1 }, "geometry": { "type": "Point", "coordinates": [ 144.9383612, -37.61188657 ] } },
{ "type": "Feature", "properties": { "address": "ABERDEEN ROAD 3085", "lat": -37.72728285, "lon": 145.0704619, "sum_dwll": 8 }, "geometry": { "type": "Point", "coordinates": [ 145.0704619, -37.72728285 ] } },
{ "type": "Feature", "properties": { "address": "ABERDEEN STREET 3350", "lat": -37.54599308, "lon": 143.807217, "sum_dwll": 5 }, "geometry": { "type": "Point", "coordinates": [ 143.807217, -37.54599308 ] } },
{ "type": "Feature", "properties": { "address": "ABERLINE ROAD 3280", "lat": -38.37057623, "lon": 142.5164685, "sum_dwll": 34 }, "geometry": { "type": "Point", "coordinates": [ 142.5164685, -38.37057623 ] } },
{ "type": "Feature", "properties": { "address": "ABIGAIL COURT 3217", "lat": -38.2395213, "lon": 144.3687972, "sum_dwll": 6 }, "geometry": { "type": "Point", "coordinates": [ 144.3687972, -38.2395213 ] } },
{ "type": "Feature", "properties": { "address": "ABIGAIL COURT 3224", "lat": -38.19323499, "lon": 144.4581953, "sum_dwll": 1 }, "geometry": { "type": "Point", "coordinates": [ 144.4581953, -38.19323499 ] } },
{ "type": "Feature", "properties": { "address": "ABLETT COURT 3818", "lat": -38.11053365, "lon": 145.8515564, "sum_dwll": 2 }, "geometry": { "type": "Point", "coordinates": [ 145.8515564, -38.11053365 ] } },
{ "type": "Feature", "properties": { "address": "ABLOOM VIEW 3064", "lat": -37.56991979, "lon": 144.89078240000001, "sum_dwll": 8 }, "geometry": { "type": "Point", "coordinates": [ 144.89078240000001, -37.56991979 ] } },
{ "type": "Feature", "properties": { "address": "ABRAHAM DRIVE 3136", "lat": -37.78983049, "lon": 145.301785, "sum_dwll": 4 }, "geometry": { "type": "Point", "coordinates": [ 145.301785, -37.78983049 ] } },
{ "type": "Feature", "properties": { "address": "ABREHART ROAD 3810", "lat": -38.06121917, "lon": 145.5119698, "sum_dwll": 14 }, "geometry": { "type": "Point", "coordinates": [ 145.5119698, -38.06121917 ] } },
{ "type": "Feature", "properties": { "address": "ABRUS CIRCUIT 3977", "lat": -38.07629496, "lon": 145.3204338, "sum_dwll": 10 }, "geometry": { "type": "Point", "coordinates": [ 145.3204338, -38.07629496 ] } },
{ "type": "Feature", "properties": { "address": "ABSINTHE PLACE 3076", "lat": -37.62747997, "lon": 145.0065751, "sum_dwll": 2 }, "geometry": { "type": "Point", "coordinates": [ 145.0065751, -37.62747997 ] } },
{ "type": "Feature", "properties": { "address": "ABUNDANT STREET 3030", "lat": -37.91994041, "lon": 144.64277480000001, "sum_dwll": 5 }, "geometry": { "type": "Point", "coordinates": [ 144.64277480000001, -37.91994041 ] } },
{ "type": "Feature", "properties": { "address": "ACACIA AVENUE 3167", "lat": -37.91259147, "lon": 145.0963913, "sum_dwll": 1 }, "geometry": { "type": "Point", "coordinates": [ 145.0963913, -37.91259147 ] } },
{ "type": "Feature", "properties": { "address": "ACACIA AVENUE 3194", "lat": -37.98245543, "lon": 145.08381420000001, "sum_dwll": 1 }, "geometry": { "type": "Point", "coordinates": [ 145.08381420000001, -37.98245543 ] } },
{ "type": "Feature", "properties": { "address": "ACACIA AVENUE 3377", "lat": -37.2742762, "lon": 142.9241978, "sum_dwll": 1 }, "geometry": { "type": "Point", "coordinates": [ 142.9241978, -37.2742762 ] } },
{ "type": "Feature", "properties": { "address": "ACACIA CLOSE 3922", "lat": -38.46119003, "lon": 145.2413268, "sum_dwll": 2 }, "geometry": { "type": "Point", "coordinates": [ 145.2413268, -38.46119003 ] } },
{ "type": "Feature", "properties": { "address": "ACACIA COURT 3134", "lat": -37.81124863, "lon": 145.2247392, "sum_dwll": 29 }, "geometry": { "type": "Point", "coordinates": [ 145.2247392, -37.81124863 ] } },
{ "type": "Feature", "properties": { "address": "ACACIA COURT 3810", "lat": -38.08086379, "lon": 145.4798625, "sum_dwll": 5 }, "geometry": { "type": "Point", "coordinates": [ 145.4798625, -38.08086379 ] } },
{ "type": "Feature", "properties": { "address": "ACACIA COURT 3996", "lat": -38.64488969, "lon": 145.69718270000001, "sum_dwll": 3 }, "geometry": { "type": "Point", "coordinates": [ 145.69718270000001, -38.64488969 ] } },
{ "type": "Feature", "properties": { "address": "ACACIA ROAD 3156", "lat": -37.89557865, "lon": 145.29827040000001, "sum_dwll": 1 }, "geometry": { "type": "Point", "coordinates": [ 145.29827040000001, -37.89557865 ] } },
{ "type": "Feature", "properties": { "address": "ACACIA ROAD 3352", "lat": -37.82534673, "lon": 143.7748868, "sum_dwll": 1 }, "geometry": { "type": "Point", "coordinates": [ 143.7748868, -37.82534673 ] } },
{ "type": "Feature", "properties": { "address": "ACACIA ROAD 3956", "lat": -38.82492834, "lon": 145.99946610000001, "sum_dwll": 1 }, "geometry": { "type": "Point", "coordinates": [ 145.99946610000001, -38.82492834 ] } },
{ "type": "Feature", "properties": { "address": "ACACIA ROAD 3984", "lat": -38.41340493, "lon": 145.53840210000001, "sum_dwll": 1 }, "geometry": { "type": "Point", "coordinates": [ 145.53840210000001, -38.41340493 ] } },
{ "type": "Feature", "properties": { "address": "ACACIA STREET 3046", "lat": -37.70805832, "lon": 144.9252292, "sum_dwll": 3 }, "geometry": { "type": "Point", "coordinates": [ 144.9252292, -37.70805832 ] } },
{ "type": "Feature", "properties": { "address": "ACACIA STREET 3215", "lat": -38.11966637, "lon": 144.3249861, "sum_dwll": 1 }, "geometry": { "type": "Point", "coordinates": [ 144.3249861, -38.11966637 ] } },
{ "type": "Feature", "properties": { "address": "ACACIA STREET 3585", "lat": -35.34317599, "lon": 143.5293769, "sum_dwll": 2 }, "geometry": { "type": "Point", "coordinates": [ 143.5293769, -35.34317599 ] } },
{ "type": "Feature", "properties": { "address": "ACACIA WAY 3756", "lat": -37.40313078, "lon": 144.9629549, "sum_dwll": 1 }, "geometry": { "type": "Point", "coordinates": [ 144.9629549, -37.40313078 ] } },
{ "type": "Feature", "properties": { "address": "ACACIA WAY 3842", "lat": -38.30134004, "lon": 146.41578730000001, "sum_dwll": 1 }, "geometry": { "type": "Point", "coordinates": [ 146.41578730000001, -38.30134004 ] } },
{ "type": "Feature", "properties": { "address": "ACHENAR COURT 3226", "lat": -38.26969346, "lon": 144.54305980000001, "sum_dwll": 3 }, "geometry": { "type": "Point", "coordinates": [ 144.54305980000001, -38.26969346 ] } },
{ "type": "Feature", "properties": { "address": "ACHERON AVENUE 3073", "lat": -37.72157443, "lon": 145.0173293, "sum_dwll": 2 }, "geometry": { "type": "Point", "coordinates": [ 145.0173293, -37.72157443 ] } },
{ "type": "Feature", "properties": { "address": "ACKERLEYS ROAD 3300", "lat": -37.71952032, "lon": 142.0116945, "sum_dwll": 1 }, "geometry": { "type": "Point", "coordinates": [ 142.0116945, -37.71952032 ] } },
{ "type": "Feature", "properties": { "address": "ACKLAND COURT 3806", "lat": -38.07248772, "lon": 145.3420703, "sum_dwll": 6 }, "geometry": { "type": "Point", "coordinates": [ 145.3420703, -38.07248772 ] } },
{ "type": "Feature", "properties": { "address": "ACKLAND ROAD 3332", "lat": -37.96369093, "lon": 144.1315076, "sum_dwll": 2 }, "geometry": { "type": "Point", "coordinates": [ 144.1315076, -37.96369093 ] } },
{ "type": "Feature", "properties": { "address": "ACLAND STREET 3064", "lat": -37.58929471, "lon": 144.91821530000001, "sum_dwll": 8 }, "geometry": { "type": "Point", "coordinates": [ 144.91821530000001, -37.58929471 ] } },
{ "type": "Feature", "properties": { "address": "ACLAND STREET 3182", "lat": -37.86534815, "lon": 144.9767221, "sum_dwll": 26 }, "geometry": { "type": "Point", "coordinates": [ 144.9767221, -37.86534815 ] } },
{ "type": "Feature", "properties": { "address": "ACMENA COURT 3082", "lat": -37.66730446, "lon": 145.07382670000001, "sum_dwll": 1 }, "geometry": { "type": "Point", "coordinates": [ 145.07382670000001, -37.66730446 ] } },
{ "type": "Feature", "properties": { "address": "ACORN GROVE 3138", "lat": -37.78311225, "lon": 145.3290107, "sum_dwll": 1 }, "geometry": { "type": "Point", "coordinates": [ 145.3290107, -37.78311225 ] } },
{ "type": "Feature", "properties": { "address": "ACRUX DRIVE 3875", "lat": -37.92314271, "lon": 147.70129370000001, "sum_dwll": 2 }, "geometry": { "type": "Point", "coordinates": [ 147.70129370000001, -37.92314271 ] } },
{ "type": "Feature", "properties": { "address": "ACTOAL DRIVE 3765", "lat": -37.81498388, "lon": 145.3358997, "sum_dwll": 1 }, "geometry": { "type": "Point", "coordinates": [ 145.3358997, -37.81498388 ] } },
{ "type": "Feature", "properties": { "address": "ACTON STREET 3149", "lat": -37.89377686, "lon": 145.11710450000001, "sum_dwll": 1 }, "geometry": { "type": "Point", "coordinates": [ 145.11710450000001, -37.89377686 ] } },
{ "type": "Feature", "properties": { "address": "ACUMIN STREET 3338", "lat": -37.69367074, "lon": 144.54217990000001, "sum_dwll": 12 }, "geometry": { "type": "Point", "coordinates": [ 144.54217990000001, -37.69367074 ] } },
{ "type": "Feature", "properties": { "address": "ADA STREET 3108", "lat": -37.79057804, "lon": 145.12053710000001, "sum_dwll": 2 }, "geometry": { "type": "Point", "coordinates": [ 145.12053710000001, -37.79057804 ] } },
{ "type": "Feature", "properties": { "address": "ADAIR COURT 3152", "lat": -37.85863159, "lon": 145.2203893, "sum_dwll": 1 }, "geometry": { "type": "Point", "coordinates": [ 145.2203893, -37.85863159 ] } },
{ "type": "Feature", "properties": { "address": "ADAIR COURT 3216", "lat": -38.19252928, "lon": 144.3558851, "sum_dwll": 12 }, "geometry": { "type": "Point", "coordinates": [ 144.3558851, -38.19252928 ] } },
{ "type": "Feature", "properties": { "address": "ADAIR STREET 3350", "lat": -37.57315585, "lon": 143.83266570000001, "sum_dwll": 5 }, "geometry": { "type": "Point", "coordinates": [ 143.83266570000001, -37.57315585 ] } },
{ "type": "Feature", "properties": { "address": "ADAMS AVENUE 3939", "lat": -38.35583639, "lon": 144.91417630000001, "sum_dwll": 1 }, "geometry": { "type": "Point", "coordinates": [ 144.91417630000001, -38.35583639 ] } },
{ "type": "Feature", "properties": { "address": "ADAMS DRIVE 3335", "lat": -37.69562241, "lon": 144.7257481, "sum_dwll": 18 }, "geometry": { "type": "Point", "coordinates": [ 144.7257481, -37.69562241 ] } },
{ "type": "Feature", "properties": { "address": "ADAMS STREET 3021", "lat": -37.74448397, "lon": 144.78142650000001, "sum_dwll": 2 }, "geometry": { "type": "Point", "coordinates": [ 144.78142650000001, -37.74448397 ] } },
{ "type": "Feature", "properties": { "address": "ADAMS STREET 3072", "lat": -37.75348941, "lon": 145.0188598, "sum_dwll": 1 }, "geometry": { "type": "Point", "coordinates": [ 145.0188598, -37.75348941 ] } },
{ "type": "Feature", "properties": { "address": "ADAMSON STREET 3446", "lat": -37.18579791, "lon": 144.3733307, "sum_dwll": 1 }, "geometry": { "type": "Point", "coordinates": [ 144.3733307, -37.18579791 ] } },
{ "type": "Feature", "properties": { "address": "ADARE COURT 3806", "lat": -38.02247432, "lon": 145.3494929, "sum_dwll": 1 }, "geometry": { "type": "Point", "coordinates": [ 145.3494929, -38.02247432 ] } },
{ "type": "Feature", "properties": { "address": "ADDERLEY COURT 3023", "lat": -37.73751479, "lon": 144.7521241, "sum_dwll": 1 }, "geometry": { "type": "Point", "coordinates": [ 144.7521241, -37.73751479 ] } },
{ "type": "Feature", "properties": { "address": "ADDICOTT STREET 3199", "lat": -38.14309515, "lon": 145.1381379, "sum_dwll": 2 }, "geometry": { "type": "Point", "coordinates": [ 145.1381379, -38.14309515 ] } },
{ "type": "Feature", "properties": { "address": "ADDIS STREET 3218", "lat": -38.14462276, "lon": 144.3373173, "sum_dwll": 2 }, "geometry": { "type": "Point", "coordinates": [ 144.3373173, -38.14462276 ] } },
{ "type": "Feature", "properties": { "address": "ADELA STREET 3355", "lat": -37.53136855, "lon": 143.83081720000001, "sum_dwll": 1 }, "geometry": { "type": "Point", "coordinates": [ 143.83081720000001, -37.53136855 ] } },
{ "type": "Feature", "properties": { "address": "ADELAIDE STREET 3011", "lat": -37.79560488, "lon": 144.8874233, "sum_dwll": 2 }, "geometry": { "type": "Point", "coordinates": [ 144.8874233, -37.79560488 ] } },
{ "type": "Feature", "properties": { "address": "ADELAIDE STREET 3020", "lat": -37.78131108, "lon": 144.819662, "sum_dwll": 3 }, "geometry": { "type": "Point", "coordinates": [ 144.819662, -37.78131108 ] } },
{ "type": "Feature", "properties": { "address": "ADELAIDE STREET 3021", "lat": -37.74117595, "lon": 144.7920451, "sum_dwll": 3 }, "geometry": { "type": "Point", "coordinates": [ 144.7920451, -37.74117595 ] } },
{ "type": "Feature", "properties": { "address": "ADELAIDE STREET 3044", "lat": -37.72639441, "lon": 144.92200980000001, "sum_dwll": 3 }, "geometry": { "type": "Point", "coordinates": [ 144.92200980000001, -37.72639441 ] } },
{ "type": "Feature", "properties": { "address": "ADELAIDE STREET 3216", "lat": -38.16933766, "lon": 144.3164415, "sum_dwll": 1 }, "geometry": { "type": "Point", "coordinates": [ 144.3164415, -38.16933766 ] } },
{ "type": "Feature", "properties": { "address": "ADELE AVENUE 3156", "lat": -37.88581873, "lon": 145.2704303, "sum_dwll": 5 }, "geometry": { "type": "Point", "coordinates": [ 145.2704303, -37.88581873 ] } },
{ "type": "Feature", "properties": { "address": "ADELINE STREET 3088", "lat": -37.70651837, "lon": 145.09402940000001, "sum_dwll": 1 }, "geometry": { "type": "Point", "coordinates": [ 145.09402940000001, -37.70651837 ] } },
{ "type": "Feature", "properties": { "address": "ADELONG COURT 3501", "lat": -34.23199131, "lon": 142.2169128, "sum_dwll": 2 }, "geometry": { "type": "Point", "coordinates": [ 142.2169128, -34.23199131 ] } },
{ "type": "Feature", "properties": { "address": "ADINA COURT 3020", "lat": -37.7951054, "lon": 144.8088143, "sum_dwll": 2 }, "geometry": { "type": "Point", "coordinates": [ 144.8088143, -37.7951054 ] } },
{ "type": "Feature", "properties": { "address": "ADMIRALS QUAY 3197", "lat": -38.06695434, "lon": 145.1430618, "sum_dwll": 1 }, "geometry": { "type": "Point", "coordinates": [ 145.1430618, -38.06695434 ] } },
{ "type": "Feature", "properties": { "address": "ADMIRALS QUAY 3880", "lat": -37.90703798, "lon": 147.724212, "sum_dwll": 1 }, "geometry": { "type": "Point", "coordinates": [ 147.724212, -37.90703798 ] } },
{ "type": "Feature", "properties": { "address": "ADON WALK 3024", "lat": -37.88310982, "lon": 144.60799170000001, "sum_dwll": 1 }, "geometry": { "type": "Point", "coordinates": [ 144.60799170000001, -37.88310982 ] } },
{ "type": "Feature", "properties": { "address": "ADONI GREEN 3730", "lat": -36.00730761, "lon": 146.0318857, "sum_dwll": 3 }, "geometry": { "type": "Point", "coordinates": [ 146.0318857, -36.00730761 ] } },
{ "type": "Feature", "properties": { "address": "ADRIAN CIRCUIT 3756", "lat": -37.41738587, "lon": 144.9715044, "sum_dwll": 2 }, "geometry": { "type": "Point", "coordinates": [ 144.9715044, -37.41738587 ] } },
{ "type": "Feature", "properties": { "address": "ADRIAN DRIVE 3810", "lat": -38.05936796, "lon": 145.5057357, "sum_dwll": 2 }, "geometry": { "type": "Point", "coordinates": [ 145.5057357, -38.05936796 ] } },
{ "type": "Feature", "properties": { "address": "ADRIAN STREET 3148", "lat": -37.88686508, "lon": 145.1045069, "sum_dwll": 4 }, "geometry": { "type": "Point", "coordinates": [ 145.1045069, -37.88686508 ] } },
{ "type": "Feature", "properties": { "address": "ADRIAN STREET 3165", "lat": -37.93262074, "lon": 145.0601165, "sum_dwll": 9 }, "geometry": { "type": "Point", "coordinates": [ 145.0601165, -37.93262074 ] } },
{ "type": "Feature", "properties": { "address": "ADRIANA COURT 3340", "lat": -37.70249376, "lon": 144.3716433, "sum_dwll": 4 }, "geometry": { "type": "Point", "coordinates": [ 144.3716433, -37.70249376 ] } },
{ "type": "Feature", "properties": { "address": "ADRIANA CRESCENT 3280", "lat": -38.35906484, "lon": 142.4527841, "sum_dwll": 3 }, "geometry": { "type": "Point", "coordinates": [ 142.4527841, -38.35906484 ] } },
{ "type": "Feature", "properties": { "address": "ADRIATIC WAY 3810", "lat": -38.06293673, "lon": 145.5086576, "sum_dwll": 11 }, "geometry": { "type": "Point", "coordinates": [ 145.5086576, -38.06293673 ] } },
{ "type": "Feature", "properties": { "address": "ADSAL COURT 3904", "lat": -37.8869448, "lon": 147.8498883, "sum_dwll": 1 }, "geometry": { "type": "Point", "coordinates": [ 147.8498883, -37.8869448 ] } },
{ "type": "Feature", "properties": { "address": "ADVENT ROAD 3030", "lat": -37.91998297, "lon": 144.6422354, "sum_dwll": 11 }, "geometry": { "type": "Point", "coordinates": [ 144.6422354, -37.91998297 ] } },
{ "type": "Feature", "properties": { "address": "ADZAR ROAD 3219", "lat": -38.1630207, "lon": 144.39061910000001, "sum_dwll": 4 }, "geometry": { "type": "Point", "coordinates": [ 144.39061910000001, -38.1630207 ] } },
{ "type": "Feature", "properties": { "address": "AEGEAN LINK 3030", "lat": -37.90168284, "lon": 144.737323, "sum_dwll": 10 }, "geometry": { "type": "Point", "coordinates": [ 144.737323, -37.90168284 ] } },
{ "type": "Feature", "properties": { "address": "AFFLECK STREET 3141", "lat": -37.84517096, "lon": 144.9862722, "sum_dwll": 1 }, "geometry": { "type": "Point", "coordinates": [ 144.9862722, -37.84517096 ] } },
{ "type": "Feature", "properties": { "address": "AFFLECKS ROAD 3856", "lat": -38.05081017, "lon": 146.6374629, "sum_dwll": 2 }, "geometry": { "type": "Point", "coordinates": [ 146.6374629, -38.05081017 ] } },
{ "type": "Feature", "properties": { "address": "AGATE DRIVE 3029", "lat": -37.84200104, "lon": 144.6671064, "sum_dwll": 14 }, "geometry": { "type": "Point", "coordinates": [ 144.6671064, -37.84200104 ] } },
{ "type": "Feature", "properties": { "address": "AGATHA STREET 3040", "lat": -37.75461245, "lon": 144.9246872, "sum_dwll": 1 }, "geometry": { "type": "Point", "coordinates": [ 144.9246872, -37.75461245 ] } },
{ "type": "Feature", "properties": { "address": "AGAVE STREET 3029", "lat": -37.83432931, "lon": 144.6836818, "sum_dwll": 4 }, "geometry": { "type": "Point", "coordinates": [ 144.6836818, -37.83432931 ] } },
{ "type": "Feature", "properties": { "address": "AGILITY COURT 3754", "lat": -37.60736597, "lon": 145.11725620000001, "sum_dwll": 1 }, "geometry": { "type": "Point", "coordinates": [ 145.11725620000001, -37.60736597 ] } },
{ "type": "Feature", "properties": { "address": "AGNES AVENUE 3104", "lat": -37.79247176, "lon": 145.09509370000001, "sum_dwll": 1 }, "geometry": { "type": "Point", "coordinates": [ 145.09509370000001, -37.79247176 ] } },
{ "type": "Feature", "properties": { "address": "AGNES STREET 3174", "lat": -37.97256372, "lon": 145.1703268, "sum_dwll": 4 }, "geometry": { "type": "Point", "coordinates": [ 145.1703268, -37.97256372 ] } },
{ "type": "Feature", "properties": { "address": "AGNES STREET 3380", "lat": -37.05275346, "lon": 142.7680384, "sum_dwll": 2 }, "geometry": { "type": "Point", "coordinates": [ 142.7680384, -37.05275346 ] } },
{ "type": "Feature", "properties": { "address": "Ah Yee Place 3880", "lat": -37.90627026, "lon": 147.70957920000001, "sum_dwll": 9 }, "geometry": { "type": "Point", "coordinates": [ 147.70957920000001, -37.90627026 ] } },
{ "type": "Feature", "properties": { "address": "AHERN ROAD 3810", "lat": -38.0609681, "lon": 145.485888, "sum_dwll": 40 }, "geometry": { "type": "Point", "coordinates": [ 145.485888, -38.0609681 ] } },
{ "type": "Feature", "properties": { "address": "AIKMAN CRESCENT 3148", "lat": -37.88792997, "lon": 145.0971229, "sum_dwll": 2 }, "geometry": { "type": "Point", "coordinates": [ 145.0971229, -37.88792997 ] } },
{ "type": "Feature", "properties": { "address": "AINLEY STREET 3350", "lat": -37.55202079, "lon": 143.8911545, "sum_dwll": 2 }, "geometry": { "type": "Point", "coordinates": [ 143.8911545, -37.55202079 ] } },
{ "type": "Feature", "properties": { "address": "AINSLIE RISE 3754", "lat": -37.58588831, "lon": 145.082116, "sum_dwll": 6 }, "geometry": { "type": "Point", "coordinates": [ 145.082116, -37.58588831 ] } },
{ "type": "Feature", "properties": { "address": "AINSWORTH STREET 3551", "lat": -36.66341314, "lon": 144.3451202, "sum_dwll": 5 }, "geometry": { "type": "Point", "coordinates": [ 144.3451202, -36.66341314 ] } },
{ "type": "Feature", "properties": { "address": "AINSWORTH WAY 3919", "lat": -38.36505093, "lon": 145.20567370000001, "sum_dwll": 1 }, "geometry": { "type": "Point", "coordinates": [ 145.20567370000001, -38.36505093 ] } },
{ "type": "Feature", "properties": { "address": "AINTREE AVENUE 3170", "lat": -37.92674983, "lon": 145.17853070000001, "sum_dwll": 1 }, "geometry": { "type": "Point", "coordinates": [ 145.17853070000001, -37.92674983 ] } },
{ "type": "Feature", "properties": { "address": "AINTREE DRIVE 3750", "lat": -37.61526055, "lon": 145.0253348, "sum_dwll": 3 }, "geometry": { "type": "Point", "coordinates": [ 145.0253348, -37.61526055 ] } },
{ "type": "Feature", "properties": { "address": "AINTREE STREET 3138", "lat": -37.78202221, "lon": 145.31280630000001, "sum_dwll": 1 }, "geometry": { "type": "Point", "coordinates": [ 145.31280630000001, -37.78202221 ] } },
{ "type": "Feature", "properties": { "address": "AIR FORCE AVENUE 3019", "lat": -37.7935138, "lon": 144.856605, "sum_dwll": 2 }, "geometry": { "type": "Point", "coordinates": [ 144.856605, -37.7935138 ] } },
{ "type": "Feature", "properties": { "address": "AIRDRIE COURT 3107", "lat": -37.76160532, "lon": 145.1247809, "sum_dwll": 3 }, "geometry": { "type": "Point", "coordinates": [ 145.1247809, -37.76160532 ] } },
{ "type": "Feature", "properties": { "address": "AIREY AVENUE 3218", "lat": -38.14172605, "lon": 144.33511150000001, "sum_dwll": 2 }, "geometry": { "type": "Point", "coordinates": [ 144.33511150000001, -38.14172605 ] } },
{ "type": "Feature", "properties": { "address": "AIRFIELD GROVE 3030", "lat": -37.89959017, "lon": 144.7181875, "sum_dwll": 13 }, "geometry": { "type": "Point", "coordinates": [ 144.7181875, -37.89959017 ] } },
{ "type": "Feature", "properties": { "address": "AIRLIE AVENUE 3030", "lat": -37.91227945, "lon": 144.74029630000001, "sum_dwll": 3 }, "geometry": { "type": "Point", "coordinates": [ 144.74029630000001, -37.91227945 ] } },
{ "type": "Feature", "properties": { "address": "AIRSTRIP ROAD 3556", "lat": -36.64704818, "lon": 144.1968498, "sum_dwll": 1 }, "geometry": { "type": "Point", "coordinates": [ 144.1968498, -36.64704818 ] } },
{ "type": "Feature", "properties": { "address": "AISBETT CLOSE 3975", "lat": -38.05831515, "lon": 145.26137850000001, "sum_dwll": 2 }, "geometry": { "type": "Point", "coordinates": [ 145.26137850000001, -38.05831515 ] } },
{ "type": "Feature", "properties": { "address": "AITCHISON AVENUE 3147", "lat": -37.86138106, "lon": 145.07826130000001, "sum_dwll": 1 }, "geometry": { "type": "Point", "coordinates": [ 145.07826130000001, -37.86138106 ] } },
{ "type": "Feature", "properties": { "address": "AITCHISON COURT 3150", "lat": -37.88277127, "lon": 145.15410370000001, "sum_dwll": 9 }, "geometry": { "type": "Point", "coordinates": [ 145.15410370000001, -37.88277127 ] } },
{ "type": "Feature", "properties": { "address": "AITKEN STREET 3016", "lat": -37.86288757, "lon": 144.9032679, "sum_dwll": 9 }, "geometry": { "type": "Point", "coordinates": [ 144.9032679, -37.86288757 ] } },
{ "type": "Feature", "properties": { "address": "AITKEN STREET 3429", "lat": -37.58330414, "lon": 144.73826020000001, "sum_dwll": 1 }, "geometry": { "type": "Point", "coordinates": [ 144.73826020000001, -37.58330414 ] } },
{ "type": "Feature", "properties": { "address": "AITKEN STREET 3437", "lat": -37.49090941, "lon": 144.5907273, "sum_dwll": 19 }, "geometry": { "type": "Point", "coordinates": [ 144.5907273, -37.49090941 ] } },
{ "type": "Feature", "properties": { "address": "AITKENSIDE AVENUE 3216", "lat": -38.16431841, "lon": 144.29896170000001, "sum_dwll": 7 }, "geometry": { "type": "Point", "coordinates": [ 144.29896170000001, -38.16431841 ] } },
{ "type": "Feature", "properties": { "address": "AJANA DRIVE 3064", "lat": -37.59604576, "lon": 144.9108205, "sum_dwll": 7 }, "geometry": { "type": "Point", "coordinates": [ 144.9108205, -37.59604576 ] } },
{ "type": "Feature", "properties": { "address": "AJAX DRIVE 3150", "lat": -37.90443741, "lon": 145.1875098, "sum_dwll": 3 }, "geometry": { "type": "Point", "coordinates": [ 145.1875098, -37.90443741 ] } },
{ "type": "Feature", "properties": { "address": "AJAX STREET 3818", "lat": -38.12896963, "lon": 145.866908, "sum_dwll": 11 }, "geometry": { "type": "Point", "coordinates": [ 145.866908, -38.12896963 ] } },
{ "type": "Feature", "properties": { "address": "AJUGA LANE 3977", "lat": -38.07928247, "lon": 145.3181225, "sum_dwll": 6 }, "geometry": { "type": "Point", "coordinates": [ 145.3181225, -38.07928247 ] } },
{ "type": "Feature", "properties": { "address": "AKINS RISE 3555", "lat": -36.7781415, "lon": 144.234427, "sum_dwll": 12 }, "geometry": { "type": "Point", "coordinates": [ 144.234427, -36.7781415 ] } },
{ "type": "Feature", "properties": { "address": "AKUNA AVENUE 3168", "lat": -37.90657711, "lon": 145.14616820000001, "sum_dwll": 1 }, "geometry": { "type": "Point", "coordinates": [ 145.14616820000001, -37.90657711 ] } },
{ "type": "Feature", "properties": { "address": "AKUNA AVENUE 3700", "lat": -36.21734785, "lon": 147.1777654, "sum_dwll": 1 }, "geometry": { "type": "Point", "coordinates": [ 147.1777654, -36.21734785 ] } },
{ "type": "Feature", "properties": { "address": "ALABASTER AVENUE 3338", "lat": -37.71392648, "lon": 144.5906435, "sum_dwll": 7 }, "geometry": { "type": "Point", "coordinates": [ 144.5906435, -37.71392648 ] } },
{ "type": "Feature", "properties": { "address": "ALAMANDA BOULEVARD 3030", "lat": -37.90478542, "lon": 144.7421685, "sum_dwll": 3 }, "geometry": { "type": "Point", "coordinates": [ 144.7421685, -37.90478542 ] } },
{ "type": "Feature", "properties": { "address": "ALAMEDA AVENUE 3931", "lat": -38.23655635, "lon": 145.04113720000001, "sum_dwll": 4 }, "geometry": { "type": "Point", "coordinates": [ 145.04113720000001, -38.23655635 ] } },
{ "type": "Feature", "properties": { "address": "ALAMEIN AVENUE 3137", "lat": -37.79545387, "lon": 145.3063219, "sum_dwll": 5 }, "geometry": { "type": "Point", "coordinates": [ 145.3063219, -37.79545387 ] } },
{ "type": "Feature", "properties": { "address": "ALAMEIN ROAD 3081", "lat": -37.73696774, "lon": 145.0421069, "sum_dwll": 2 }, "geometry": { "type": "Point", "coordinates": [ 145.0421069, -37.73696774 ] } },
{ "type": "Feature", "properties": { "address": "ALANA COURT 3173", "lat": -38.0026343, "lon": 145.143226, "sum_dwll": 1 }, "geometry": { "type": "Point", "coordinates": [ 145.143226, -38.0026343 ] } },
{ "type": "Feature", "properties": { "address": "ALANA COURT 3515", "lat": -36.72892584, "lon": 144.13333320000001, "sum_dwll": 4 }, "geometry": { "type": "Point", "coordinates": [ 144.13333320000001, -36.72892584 ] } },
{ "type": "Feature", "properties": { "address": "ALARAH BOULEVARD 3977", "lat": -38.10984305, "lon": 145.2424356, "sum_dwll": 27 }, "geometry": { "type": "Point", "coordinates": [ 145.2424356, -38.10984305 ] } },
{ "type": "Feature", "properties": { "address": "ALASTAIR COURT 3137", "lat": -37.79612185, "lon": 145.3186647, "sum_dwll": 2 }, "geometry": { "type": "Point", "coordinates": [ 145.3186647, -37.79612185 ] } },
{ "type": "Feature", "properties": { "address": "ALASTAIR COURT 3233", "lat": -38.74321133, "lon": 143.66905940000001, "sum_dwll": 1 }, "geometry": { "type": "Point", "coordinates": [ 143.66905940000001, -38.74321133 ] } },
{ "type": "Feature", "properties": { "address": "ALBA WAY 3975", "lat": -38.07742893, "lon": 145.24259860000001, "sum_dwll": 2 }, "geometry": { "type": "Point", "coordinates": [ 145.24259860000001, -38.07742893 ] } },
{ "type": "Feature", "properties": { "address": "ALBANVALE DRIVE 3021", "lat": -37.74833836, "lon": 144.7641232, "sum_dwll": 12 }, "geometry": { "type": "Point", "coordinates": [ 144.7641232, -37.74833836 ] } },
{ "type": "Feature", "properties": { "address": "ALBANY CRESCENT 3195", "lat": -38.02434683, "lon": 145.1059181, "sum_dwll": 1 }, "geometry": { "type": "Point", "coordinates": [ 145.1059181, -38.02434683 ] } },
{ "type": "Feature", "properties": { "address": "ALBANY CRESCENT 3810", "lat": -38.07044844, "lon": 145.49230650000001, "sum_dwll": 11 }, "geometry": { "type": "Point", "coordinates": [ 145.49230650000001, -38.07044844 ] } },
{ "type": "Feature", "properties": { "address": "ALBANY DRIVE 3170", "lat": -37.92831449, "lon": 145.17234740000001, "sum_dwll": 2 }, "geometry": { "type": "Point", "coordinates": [ 145.17234740000001, -37.92831449 ] } },
{ "type": "Feature", "properties": { "address": "ALBANY WAY 3931", "lat": -38.23278437, "lon": 145.0652407, "sum_dwll": 1 }, "geometry": { "type": "Point", "coordinates": [ 145.0652407, -38.23278437 ] } },
{ "type": "Feature", "properties": { "address": "ALBATROSS CLOSE 3064", "lat": -37.60046153, "lon": 144.91596620000001, "sum_dwll": 1 }, "geometry": { "type": "Point", "coordinates": [ 144.91596620000001, -37.60046153 ] } },
{ "type": "Feature", "properties": { "address": "ALBATROSS DRIVE 3810", "lat": -38.06744137, "lon": 145.4488097, "sum_dwll": 6 }, "geometry": { "type": "Point", "coordinates": [ 145.4488097, -38.06744137 ] } },
{ "type": "Feature", "properties": { "address": "ALBATROSS ROAD 3909", "lat": -37.87298176, "lon": 147.9686548, "sum_dwll": 1 }, "geometry": { "type": "Point", "coordinates": [ 147.9686548, -37.87298176 ] } },
{ "type": "Feature", "properties": { "address": "ALBENCA STREET 3192", "lat": -37.97388322, "lon": 145.0753547, "sum_dwll": 2 }, "geometry": { "type": "Point", "coordinates": [ 145.0753547, -37.97388322 ] } },
{ "type": "Feature", "properties": { "address": "ALBERFELDIE DRIVE 3029", "lat": -37.84256154, "lon": 144.73886150000001, "sum_dwll": 13 }, "geometry": { "type": "Point", "coordinates": [ 144.73886150000001, -37.84256154 ] } },
{ "type": "Feature", "properties": { "address": "ALBERT AVENUE 3155", "lat": -37.85497294, "lon": 145.2963153, "sum_dwll": 2 }, "geometry": { "type": "Point", "coordinates": [ 145.2963153, -37.85497294 ] } },
{ "type": "Feature", "properties": { "address": "ALBERT AVENUE 3166", "lat": -37.89800088, "lon": 145.0942384, "sum_dwll": 61 }, "geometry": { "type": "Point", "coordinates": [ 145.0942384, -37.89800088 ] } },
{ "type": "Feature", "properties": { "address": "ALBERT AVENUE 3171", "lat": -37.95084963, "lon": 145.14605130000001, "sum_dwll": 3 }, "geometry": { "type": "Point", "coordinates": [ 145.14605130000001, -37.95084963 ] } },
{ "type": "Feature", "properties": { "address": "ALBERT AVENUE 3231", "lat": -38.45997001, "lon": 144.1081328, "sum_dwll": 1 }, "geometry": { "type": "Point", "coordinates": [ 144.1081328, -38.45997001 ] } },
{ "type": "Feature", "properties": { "address": "ALBERT COURT 3677", "lat": -36.37834063, "lon": 146.32734690000001, "sum_dwll": 1 }, "geometry": { "type": "Point", "coordinates": [ 146.32734690000001, -36.37834063 ] } },
{ "type": "Feature", "properties": { "address": "ALBERT CRESCENT 3021", "lat": -37.74242546, "lon": 144.7964041, "sum_dwll": 2 }, "geometry": { "type": "Point", "coordinates": [ 144.7964041, -37.74242546 ] } },
{ "type": "Feature", "properties": { "address": "ALBERT LANE 3460", "lat": -37.34056244, "lon": 144.1344656, "sum_dwll": 1 }, "geometry": { "type": "Point", "coordinates": [ 144.1344656, -37.34056244 ] } },
{ "type": "Feature", "properties": { "address": "ALBERT PARK WAY 3173", "lat": -37.9951008, "lon": 145.1507681, "sum_dwll": 1 }, "geometry": { "type": "Point", "coordinates": [ 145.1507681, -37.9951008 ] } },
{ "type": "Feature", "properties": { "address": "ALBERT ROAD 3037", "lat": -37.68997377, "lon": 144.7578351, "sum_dwll": 7 }, "geometry": { "type": "Point", "coordinates": [ 144.7578351, -37.68997377 ] } },
{ "type": "Feature", "properties": { "address": "ALBERT ROAD 3205", "lat": -37.8349935, "lon": 144.96989930000001, "sum_dwll": 400 }, "geometry": { "type": "Point", "coordinates": [ 144.96989930000001, -37.8349935 ] } },
{ "type": "Feature", "properties": { "address": "ALBERT ROAD 3429", "lat": -37.54917235, "lon": 144.7277576, "sum_dwll": 1 }, "geometry": { "type": "Point", "coordinates": [ 144.7277576, -37.54917235 ] } },
{ "type": "Feature", "properties": { "address": "ALBERT ROAD 3782", "lat": -37.93066625, "lon": 145.4303661, "sum_dwll": 1 }, "geometry": { "type": "Point", "coordinates": [ 145.4303661, -37.93066625 ] } },
{ "type": "Feature", "properties": { "address": "ALBERT ROAD 3803", "lat": -38.00320518, "lon": 145.26696870000001, "sum_dwll": 4 }, "geometry": { "type": "Point", "coordinates": [ 145.26696870000001, -38.00320518 ] } },
{ "type": "Feature", "properties": { "address": "ALBERT ROAD 3818", "lat": -38.12913173, "lon": 145.8552162, "sum_dwll": 1 }, "geometry": { "type": "Point", "coordinates": [ 145.8552162, -38.12913173 ] } },
{ "type": "Feature", "properties": { "address": "ALBERT RUTTLE DRIVE 3996", "lat": -38.63275483, "lon": 145.6939907, "sum_dwll": 1 }, "geometry": { "type": "Point", "coordinates": [ 145.6939907, -38.63275483 ] } },
{ "type": "Feature", "properties": { "address": "ALBERT STREET 3011", "lat": -37.80251789, "lon": 144.897501, "sum_dwll": 232 }, "geometry": { "type": "Point", "coordinates": [ 144.897501, -37.80251789 ] } },
{ "type": "Feature", "properties": { "address": "ALBERT STREET 3057", "lat": -37.77040876, "lon": 144.9755837, "sum_dwll": 117 }, "geometry": { "type": "Point", "coordinates": [ 144.9755837, -37.77040876 ] } },
{ "type": "Feature", "properties": { "address": "ALBERT STREET 3073", "lat": -37.72865171, "lon": 145.02497930000001, "sum_dwll": 6 }, "geometry": { "type": "Point", "coordinates": [ 145.02497930000001, -37.72865171 ] } },
{ "type": "Feature", "properties": { "address": "ALBERT STREET 3106", "lat": -37.7581977, "lon": 145.1503181, "sum_dwll": 1 }, "geometry": { "type": "Point", "coordinates": [ 145.1503181, -37.7581977 ] } },
{ "type": "Feature", "properties": { "address": "ALBERT STREET 3134", "lat": -37.81841352, "lon": 145.224682, "sum_dwll": 7 }, "geometry": { "type": "Point", "coordinates": [ 145.224682, -37.81841352 ] } },
{ "type": "Feature", "properties": { "address": "ALBERT STREET 3149", "lat": -37.88399774, "lon": 145.12897290000001, "sum_dwll": 4 }, "geometry": { "type": "Point", "coordinates": [ 145.12897290000001, -37.88399774 ] } },
{ "type": "Feature", "properties": { "address": "ALBERT STREET 3186", "lat": -37.91440411, "lon": 144.9889754, "sum_dwll": 1 }, "geometry": { "type": "Point", "coordinates": [ 144.9889754, -37.91440411 ] } },
{ "type": "Feature", "properties": { "address": "ALBERT STREET 3190", "lat": -37.95029304, "lon": 145.0369634, "sum_dwll": 3 }, "geometry": { "type": "Point", "coordinates": [ 145.0369634, -37.95029304 ] } },
{ "type": "Feature", "properties": { "address": "ALBERT STREET 3218", "lat": -38.14013964, "lon": 144.3425618, "sum_dwll": 1 }, "geometry": { "type": "Point", "coordinates": [ 144.3425618, -38.14013964 ] } },
{ "type": "Feature", "properties": { "address": "ALBERT STREET 3352", "lat": -37.47900706, "lon": 143.7955102, "sum_dwll": 7 }, "geometry": { "type": "Point", "coordinates": [ 143.7955102, -37.47900706 ] } },
{ "type": "Feature", "properties": { "address": "ALBERT STREET 3356", "lat": -37.59941563, "lon": 143.8402672, "sum_dwll": 29 }, "geometry": { "type": "Point", "coordinates": [ 143.8402672, -37.59941563 ] } },
{ "type": "Feature", "properties": { "address": "ALBERT STREET 3424", "lat": -35.89468107, "lon": 141.99540150000001, "sum_dwll": 1 }, "geometry": { "type": "Point", "coordinates": [ 141.99540150000001, -35.89468107 ] } },
{ "type": "Feature", "properties": { "address": "ALBERT STREET 3460", "lat": -37.34124128, "lon": 144.1404279, "sum_dwll": 6 }, "geometry": { "type": "Point", "coordinates": [ 144.1404279, -37.34124128 ] } },
{ "type": "Feature", "properties": { "address": "ALBERT STREET 3550", "lat": -36.7501691, "lon": 144.25830970000001, "sum_dwll": 16 }, "geometry": { "type": "Point", "coordinates": [ 144.25830970000001, -36.7501691 ] } },
{ "type": "Feature", "properties": { "address": "ALBERT STREET 3561", "lat": -36.36699659, "lon": 144.6917806, "sum_dwll": 1 }, "geometry": { "type": "Point", "coordinates": [ 144.6917806, -36.36699659 ] } },
{ "type": "Feature", "properties": { "address": "ALBERT STREET 3714", "lat": -37.19485691, "lon": 145.7068051, "sum_dwll": 1 }, "geometry": { "type": "Point", "coordinates": [ 145.7068051, -37.19485691 ] } },
{ "type": "Feature", "properties": { "address": "ALBERT STREET 3764", "lat": -37.29256735, "lon": 144.9539844, "sum_dwll": 7 }, "geometry": { "type": "Point", "coordinates": [ 144.9539844, -37.29256735 ] } },
{ "type": "Feature", "properties": { "address": "ALBERT STREET 3820", "lat": -38.16009837, "lon": 145.93458820000001, "sum_dwll": 4 }, "geometry": { "type": "Point", "coordinates": [ 145.93458820000001, -38.16009837 ] } },
{ "type": "Feature", "properties": { "address": "ALBERT STREET 3825", "lat": -38.17504978, "lon": 146.2636009, "sum_dwll": 1 }, "geometry": { "type": "Point", "coordinates": [ 146.2636009, -38.17504978 ] } },
{ "type": "Feature", "properties": { "address": "ALBERT STREET 3844", "lat": -38.19742139, "lon": 146.5317486, "sum_dwll": 1 }, "geometry": { "type": "Point", "coordinates": [ 146.5317486, -38.19742139 ] } },
{ "type": "Feature", "properties": { "address": "ALBERT STREET 3847", "lat": -38.15192986, "lon": 146.7819793, "sum_dwll": 11 }, "geometry": { "type": "Point", "coordinates": [ 146.7819793, -38.15192986 ] } },
{ "type": "Feature", "properties": { "address": "ALBERT STREET 3922", "lat": -38.4515679, "lon": 145.2310437, "sum_dwll": 3 }, "geometry": { "type": "Point", "coordinates": [ 145.2310437, -38.4515679 ] } },
{ "type": "Feature", "properties": { "address": "ALBERTA STREET 3012", "lat": -37.79674291, "lon": 144.8638048, "sum_dwll": 3 }, "geometry": { "type": "Point", "coordinates": [ 144.8638048, -37.79674291 ] } },
{ "type": "Feature", "properties": { "address": "ALBERTA WAY 3806", "lat": -38.04395555, "lon": 145.32269550000001, "sum_dwll": 1 }, "geometry": { "type": "Point", "coordinates": [ 145.32269550000001, -38.04395555 ] } },
{ "type": "Feature", "properties": { "address": "ALBERTINE CRESCENT 3037", "lat": -37.70987555, "lon": 144.7788406, "sum_dwll": 1 }, "geometry": { "type": "Point", "coordinates": [ 144.7788406, -37.70987555 ] } },
{ "type": "Feature", "properties": { "address": "ALBIDA PARADE 3975", "lat": -38.07698445, "lon": 145.2425889, "sum_dwll": 17 }, "geometry": { "type": "Point", "coordinates": [ 145.2425889, -38.07698445 ] } },
{ "type": "Feature", "properties": { "address": "ALBION ROAD 3128", "lat": -37.82469979, "lon": 145.1271937, "sum_dwll": 1 }, "geometry": { "type": "Point", "coordinates": [ 145.1271937, -37.82469979 ] } },
{ "type": "Feature", "properties": { "address": "ALBION ROAD 3146", "lat": -37.86408693, "lon": 145.066097, "sum_dwll": 1 }, "geometry": { "type": "Point", "coordinates": [ 145.066097, -37.86408693 ] } },
{ "type": "Feature", "properties": { "address": "ALBION STREET 3040", "lat": -37.75663236, "lon": 144.93042320000001, "sum_dwll": 14 }, "geometry": { "type": "Point", "coordinates": [ 144.93042320000001, -37.75663236 ] } },
{ "type": "Feature", "properties": { "address": "ALBION STREET 3055", "lat": -37.75837304, "lon": 144.9422257, "sum_dwll": 3 }, "geometry": { "type": "Point", "coordinates": [ 144.9422257, -37.75837304 ] } },
{ "type": "Feature", "properties": { "address": "ALBION STREET 3056", "lat": -37.76066385, "lon": 144.9620534, "sum_dwll": 6 }, "geometry": { "type": "Point", "coordinates": [ 144.9620534, -37.76066385 ] } },
{ "type": "Feature", "properties": { "address": "ALBION STREET 3126", "lat": -37.83103927, "lon": 145.0860667, "sum_dwll": 1 }, "geometry": { "type": "Point", "coordinates": [ 145.0860667, -37.83103927 ] } },
{ "type": "Feature", "properties": { "address": "ALBRECHT AVENUE 3806", "lat": -38.0533575, "lon": 145.35016830000001, "sum_dwll": 1 }, "geometry": { "type": "Point", "coordinates": [ 145.35016830000001, -38.0533575 ] } },
{ "type": "Feature", "properties": { "address": "ALCHESTER COURT 3074", "lat": -37.67207587, "lon": 145.0034049, "sum_dwll": 1 }, "geometry": { "type": "Point", "coordinates": [ 145.0034049, -37.67207587 ] } },
{ "type": "Feature", "properties": { "address": "ALDER COURT 3043", "lat": -37.70143694, "lon": 144.9000642, "sum_dwll": 59 }, "geometry": { "type": "Point", "coordinates": [ 144.9000642, -37.70143694 ] } },
{ "type": "Feature", "properties": { "address": "ALDERBARK WAY 3059", "lat": -37.62341017, "lon": 144.8754021, "sum_dwll": 7 }, "geometry": { "type": "Point", "coordinates": [ 144.8754021, -37.62341017 ] } },
{ "type": "Feature", "properties": { "address": "ALDERSHOT DRIVE 3038", "lat": -37.71974422, "lon": 144.80902090000001, "sum_dwll": 2 }, "geometry": { "type": "Point", "coordinates": [ 144.80902090000001, -37.71974422 ] } },
{ "type": "Feature", "properties": { "address": "ALDRIDGE DRIVE 3429", "lat": -37.5625889, "lon": 144.71968670000001, "sum_dwll": 2 }, "geometry": { "type": "Point", "coordinates": [ 144.71968670000001, -37.5625889 ] } },
{ "type": "Feature", "properties": { "address": "ALDRIDGE ROAD 3024", "lat": -37.89700118, "lon": 144.612323, "sum_dwll": 1 }, "geometry": { "type": "Point", "coordinates": [ 144.612323, -37.89700118 ] } },
{ "type": "Feature", "properties": { "address": "ALEMAN GREEN 3754", "lat": -37.60440166, "lon": 145.08603550000001, "sum_dwll": 14 }, "geometry": { "type": "Point", "coordinates": [ 145.08603550000001, -37.60440166 ] } },
{ "type": "Feature", "properties": { "address": "ALESIA COURT 3030", "lat": -37.90858004, "lon": 144.6860212, "sum_dwll": 1 }, "geometry": { "type": "Point", "coordinates": [ 144.6860212, -37.90858004 ] } },
{ "type": "Feature", "properties": { "address": "ALEX COURT 3138", "lat": -37.78155049, "lon": 145.3221816, "sum_dwll": 2 }, "geometry": { "type": "Point", "coordinates": [ 145.3221816, -37.78155049 ] } },
{ "type": "Feature", "properties": { "address": "ALEX COURT 3337", "lat": -37.66775279, "lon": 144.5756351, "sum_dwll": 3 }, "geometry": { "type": "Point", "coordinates": [ 144.5756351, -37.66775279 ] } },
{ "type": "Feature", "properties": { "address": "ALEX SCOTT WAY 3175", "lat": -37.99255333, "lon": 145.2064845, "sum_dwll": 18 }, "geometry": { "type": "Point", "coordinates": [ 145.2064845, -37.99255333 ] } },
{ "type": "Feature", "properties": { "address": "ALEXANDER AVENUE 3074", "lat": -37.68105368, "lon": 145.021027, "sum_dwll": 12 }, "geometry": { "type": "Point", "coordinates": [ 145.021027, -37.68105368 ] } },
{ "type": "Feature", "properties": { "address": "ALEXANDER AVENUE 3166", "lat": -37.90728549, "lon": 145.1195407, "sum_dwll": 4 }, "geometry": { "type": "Point", "coordinates": [ 145.1195407, -37.90728549 ] } },
{ "type": "Feature", "properties": { "address": "ALEXANDER AVENUE 3175", "lat": -37.97241675, "lon": 145.1962381, "sum_dwll": 1 }, "geometry": { "type": "Point", "coordinates": [ 145.1962381, -37.97241675 ] } },
{ "type": "Feature", "properties": { "address": "ALEXANDER AVENUE 3355", "lat": -37.53804878, "lon": 143.8336649, "sum_dwll": 1 }, "geometry": { "type": "Point", "coordinates": [ 143.8336649, -37.53804878 ] } },
{ "type": "Feature", "properties": { "address": "ALEXANDER AVENUE 3825", "lat": -38.18328334, "lon": 146.24680660000001, "sum_dwll": 1 }, "geometry": { "type": "Point", "coordinates": [ 146.24680660000001, -38.18328334 ] } },
{ "type": "Feature", "properties": { "address": "ALEXANDER CIRCLE 3197", "lat": -38.0594785, "lon": 145.1406657, "sum_dwll": 1 }, "geometry": { "type": "Point", "coordinates": [ 145.1406657, -38.0594785 ] } },
{ "type": "Feature", "properties": { "address": "ALEXANDER CIRCUIT 3064", "lat": -37.58973438, "lon": 144.9039774, "sum_dwll": 31 }, "geometry": { "type": "Point", "coordinates": [ 144.9039774, -37.58973438 ] } },
{ "type": "Feature", "properties": { "address": "ALEXANDER COURT 3223", "lat": -38.12240845, "lon": 144.64466730000001, "sum_dwll": 2 }, "geometry": { "type": "Point", "coordinates": [ 144.64466730000001, -38.12240845 ] } },
{ "type": "Feature", "properties": { "address": "ALEXANDER COURT 3757", "lat": -37.47613326, "lon": 145.247473, "sum_dwll": 1 }, "geometry": { "type": "Point", "coordinates": [ 145.247473, -37.47613326 ] } },
{ "type": "Feature", "properties": { "address": "ALEXANDER GRAY LANE 3672", "lat": -36.56322509, "lon": 145.9774019, "sum_dwll": 1 }, "geometry": { "type": "Point", "coordinates": [ 145.9774019, -36.56322509 ] } },
{ "type": "Feature", "properties": { "address": "ALEXANDER ROAD 3995", "lat": -38.59734126, "lon": 145.574795, "sum_dwll": 4 }, "geometry": { "type": "Point", "coordinates": [ 145.574795, -38.59734126 ] } },
{ "type": "Feature", "properties": { "address": "ALEXANDER STREET 3011", "lat": -37.80378389, "lon": 144.8896566, "sum_dwll": 1 }, "geometry": { "type": "Point", "coordinates": [ 144.8896566, -37.80378389 ] } },
{ "type": "Feature", "properties": { "address": "ALEXANDER STREET 3034", "lat": -37.76678438, "lon": 144.8661185, "sum_dwll": 1 }, "geometry": { "type": "Point", "coordinates": [ 144.8661185, -37.76678438 ] } },
{ "type": "Feature", "properties": { "address": "ALEXANDER STREET 3165", "lat": -37.92163187, "lon": 145.053794, "sum_dwll": 4 }, "geometry": { "type": "Point", "coordinates": [ 145.053794, -37.92163187 ] } },
{ "type": "Feature", "properties": { "address": "ALEXANDER STREET 3730", "lat": -36.00755038, "lon": 146.0477186, "sum_dwll": 1 }, "geometry": { "type": "Point", "coordinates": [ 146.0477186, -36.00755038 ] } },
{ "type": "Feature", "properties": { "address": "ALEXANDER STREET 3803", "lat": -38.00376349, "lon": 145.262097, "sum_dwll": 2 }, "geometry": { "type": "Point", "coordinates": [ 145.262097, -38.00376349 ] } },
{ "type": "Feature", "properties": { "address": "ALEXANDER STREET 3977", "lat": -38.10417795, "lon": 145.2796496, "sum_dwll": 3 }, "geometry": { "type": "Point", "coordinates": [ 145.2796496, -38.10417795 ] } },
{ "type": "Feature", "properties": { "address": "ALEXANDRA AVENUE 3141", "lat": -37.83288676, "lon": 144.9926605, "sum_dwll": 30 }, "geometry": { "type": "Point", "coordinates": [ 144.9926605, -37.83288676 ] } },
{ "type": "Feature", "properties": { "address": "ALEXANDRA AVENUE 3228", "lat": -38.34839518, "lon": 144.29673070000001, "sum_dwll": 1 }, "geometry": { "type": "Point", "coordinates": [ 144.29673070000001, -38.34839518 ] } },
{ "type": "Feature", "properties": { "address": "ALEXANDRA AVENUE 3909", "lat": -37.87646606, "lon": 147.9626243, "sum_dwll": 1 }, "geometry": { "type": "Point", "coordinates": [ 147.9626243, -37.87646606 ] } },
{ "type": "Feature", "properties": { "address": "ALEXANDRA CRESCENT 3127", "lat": -37.82502113, "lon": 145.099316, "sum_dwll": 1 }, "geometry": { "type": "Point", "coordinates": [ 145.099316, -37.82502113 ] } },
{ "type": "Feature", "properties": { "address": "ALEXANDRA MEWS 3910", "lat": -38.16347662, "lon": 145.20606530000001, "sum_dwll": 5 }, "geometry": { "type": "Point", "coordinates": [ 145.20606530000001, -38.16347662 ] } },
{ "type": "Feature", "properties": { "address": "ALEXANDRA STREET 3088", "lat": -37.70751126, "lon": 145.1052126, "sum_dwll": 186 }, "geometry": { "type": "Point", "coordinates": [ 145.1052126, -37.70751126 ] } },
{ "type": "Feature", "properties": { "address": "ALEXANDRA STREET 3141", "lat": -37.84070453, "lon": 144.98752450000001, "sum_dwll": 26 }, "geometry": { "type": "Point", "coordinates": [ 144.98752450000001, -37.84070453 ] } },
{ "type": "Feature", "properties": { "address": "ALEXANDRA STREET 3183", "lat": -37.86446084, "lon": 145.0032473, "sum_dwll": 17 }, "geometry": { "type": "Point", "coordinates": [ 145.0032473, -37.86446084 ] } },
{ "type": "Feature", "properties": { "address": "ALEXANDRA STREET 3356", "lat": -37.58445438, "lon": 143.83255750000001, "sum_dwll": 2 }, "geometry": { "type": "Point", "coordinates": [ 143.83255750000001, -37.58445438 ] } },
{ "type": "Feature", "properties": { "address": "ALEXANDRO GROVE 3915", "lat": -38.29916591, "lon": 145.17847570000001, "sum_dwll": 2 }, "geometry": { "type": "Point", "coordinates": [ 145.17847570000001, -38.29916591 ] } },
{ "type": "Feature", "properties": { "address": "ALF COURT 3818", "lat": -38.13929984, "lon": 145.8514279, "sum_dwll": 2 }, "geometry": { "type": "Point", "coordinates": [ 145.8514279, -38.13929984 ] } },
{ "type": "Feature", "properties": { "address": "ALFA COURT 3075", "lat": -37.66588028, "lon": 145.00562210000001, "sum_dwll": 1 }, "geometry": { "type": "Point", "coordinates": [ 145.00562210000001, -37.66588028 ] } },
{ "type": "Feature", "properties": { "address": "ALFORD AVENUE 3713", "lat": -37.23075764, "lon": 145.8830391, "sum_dwll": 3 }, "geometry": { "type": "Point", "coordinates": [ 145.8830391, -37.23075764 ] } },
{ "type": "Feature", "properties": { "address": "ALFORD ROAD 3249", "lat": -38.42856457, "lon": 143.6093449, "sum_dwll": 1 }, "geometry": { "type": "Point", "coordinates": [ 143.6093449, -38.42856457 ] } },
{ "type": "Feature", "properties": { "address": "ALFORD STREET 3020", "lat": -37.7774105, "lon": 144.8444992, "sum_dwll": 1 }, "geometry": { "type": "Point", "coordinates": [ 144.8444992, -37.7774105 ] } },
{ "type": "Feature", "properties": { "address": "ALFORDS LANE 3304", "lat": -38.14978092, "lon": 141.69458370000001, "sum_dwll": 1 }, "geometry": { "type": "Point", "coordinates": [ 141.69458370000001, -38.14978092 ] } },
{ "type": "Feature", "properties": { "address": "ALFRED CLOSE 3804", "lat": -37.99139511, "lon": 145.312233, "sum_dwll": 1 }, "geometry": { "type": "Point", "coordinates": [ 145.312233, -37.99139511 ] } },
{ "type": "Feature", "properties": { "address": "ALFRED DRIVE 3451", "lat": -37.06773482, "lon": 144.1921741, "sum_dwll": 1 }, "geometry": { "type": "Point", "coordinates": [ 144.1921741, -37.06773482 ] } },
{ "type": "Feature", "properties": { "address": "ALFRED ROAD 3140", "lat": -37.76151634, "lon": 145.3601093, "sum_dwll": 1 }, "geometry": { "type": "Point", "coordinates": [ 145.3601093, -37.76151634 ] } },
{ "type": "Feature", "properties": { "address": "ALFRED STREET 3139", "lat": -37.77729368, "lon": 145.4327176, "sum_dwll": 1 }, "geometry": { "type": "Point", "coordinates": [ 145.4327176, -37.77729368 ] } },
{ "type": "Feature", "properties": { "address": "ALFRED STREET 3174", "lat": -37.97013179, "lon": 145.1703359, "sum_dwll": 2 }, "geometry": { "type": "Point", "coordinates": [ 145.1703359, -37.97013179 ] } },
{ "type": "Feature", "properties": { "address": "ALFRED STREET 3207", "lat": -37.83478911, "lon": 144.93764530000001, "sum_dwll": 3 }, "geometry": { "type": "Point", "coordinates": [ 144.93764530000001, -37.83478911 ] } },
{ "type": "Feature", "properties": { "address": "ALFRED STREET 3380", "lat": -37.05335776, "lon": 142.78025890000001, "sum_dwll": 1 }, "geometry": { "type": "Point", "coordinates": [ 142.78025890000001, -37.05335776 ] } },
{ "type": "Feature", "properties": { "address": "ALFREDA AVENUE 3105", "lat": -37.77742061, "lon": 145.09764960000001, "sum_dwll": 1 }, "geometry": { "type": "Point", "coordinates": [ 145.09764960000001, -37.77742061 ] } },
{ "type": "Feature", "properties": { "address": "ALFREDA PLACE 3555", "lat": -36.77657395, "lon": 144.2401907, "sum_dwll": 1 }, "geometry": { "type": "Point", "coordinates": [ 144.2401907, -36.77657395 ] } },
{ "type": "Feature", "properties": { "address": "ALFREDTON DRIVE 3350", "lat": -37.55935424, "lon": 143.79721470000001, "sum_dwll": 40 }, "geometry": { "type": "Point", "coordinates": [ 143.79721470000001, -37.55935424 ] } },
{ "type": "Feature", "properties": { "address": "ALFRICK ROAD 3136", "lat": -37.80073117, "lon": 145.28778410000001, "sum_dwll": 10 }, "geometry": { "type": "Point", "coordinates": [ 145.28778410000001, -37.80073117 ] } },
{ "type": "Feature", "properties": { "address": "ALFRISTON STREET 3184", "lat": -37.87520975, "lon": 144.99025090000001, "sum_dwll": 7 }, "geometry": { "type": "Point", "coordinates": [ 144.99025090000001, -37.87520975 ] } },
{ "type": "Feature", "properties": { "address": "ALGERD WAY 3810", "lat": -38.06335163, "lon": 145.492041, "sum_dwll": 1 }, "geometry": { "type": "Point", "coordinates": [ 145.492041, -38.06335163 ] } },
{ "type": "Feature", "properties": { "address": "Alice Court 3880", "lat": -37.90600907, "lon": 147.7075921, "sum_dwll": 5 }, "geometry": { "type": "Point", "coordinates": [ 147.7075921, -37.90600907 ] } },
{ "type": "Feature", "properties": { "address": "ALICE GROVE 3199", "lat": -38.14570951, "lon": 145.1354404, "sum_dwll": 1 }, "geometry": { "type": "Point", "coordinates": [ 145.1354404, -38.14570951 ] } },
{ "type": "Feature", "properties": { "address": "ALICE MARY ROAD 3977", "lat": -38.11080732, "lon": 145.2429077, "sum_dwll": 13 }, "geometry": { "type": "Point", "coordinates": [ 145.2429077, -38.11080732 ] } },
{ "type": "Feature", "properties": { "address": "ALICE STREET 3013", "lat": -37.81401169, "lon": 144.88692510000001, "sum_dwll": 1 }, "geometry": { "type": "Point", "coordinates": [ 144.88692510000001, -37.81401169 ] } },
{ "type": "Feature", "properties": { "address": "ALICE STREET 3168", "lat": -37.91793595, "lon": 145.1156644, "sum_dwll": 1 }, "geometry": { "type": "Point", "coordinates": [ 145.1156644, -37.91793595 ] } },
{ "type": "Feature", "properties": { "address": "ALICE WAY 3757", "lat": -37.51531338, "lon": 145.07854370000001, "sum_dwll": 2 }, "geometry": { "type": "Point", "coordinates": [ 145.07854370000001, -37.51531338 ] } },
{ "type": "Feature", "properties": { "address": "ALIDA COURT 3820", "lat": -38.15611498, "lon": 145.9556584, "sum_dwll": 1 }, "geometry": { "type": "Point", "coordinates": [ 145.9556584, -38.15611498 ] } },
{ "type": "Feature", "properties": { "address": "ALIMIA RISE 3075", "lat": -37.66379855, "lon": 144.99046860000001, "sum_dwll": 6 }, "geometry": { "type": "Point", "coordinates": [ 144.99046860000001, -37.66379855 ] } },
{ "type": "Feature", "properties": { "address": "ALINGA COURT 3222", "lat": -38.16388318, "lon": 144.5649456, "sum_dwll": 1 }, "geometry": { "type": "Point", "coordinates": [ 144.5649456, -38.16388318 ] } },
{ "type": "Feature", "properties": { "address": "ALISMA BOULEVARD 3977", "lat": -38.07792559, "lon": 145.32458320000001, "sum_dwll": 11 }, "geometry": { "type": "Point", "coordinates": [ 145.32458320000001, -38.07792559 ] } },
{ "type": "Feature", "properties": { "address": "ALISON BOULEVARD 3551", "lat": -36.71116663, "lon": 144.30179580000001, "sum_dwll": 7 }, "geometry": { "type": "Point", "coordinates": [ 144.30179580000001, -36.71116663 ] } },
{ "type": "Feature", "properties": { "address": "ALISON STREET 3029", "lat": -37.85645652, "lon": 144.7261567, "sum_dwll": 38 }, "geometry": { "type": "Point", "coordinates": [ 144.7261567, -37.85645652 ] } },
{ "type": "Feature", "properties": { "address": "ALISON STREET 3223", "lat": -38.12153636, "lon": 144.6417826, "sum_dwll": 2 }, "geometry": { "type": "Point", "coordinates": [ 144.6417826, -38.12153636 ] } },
{ "type": "Feature", "properties": { "address": "ALIZA AVENUE 3556", "lat": -36.72299746, "lon": 144.2718643, "sum_dwll": 2 }, "geometry": { "type": "Point", "coordinates": [ 144.2718643, -36.72299746 ] } },
{ "type": "Feature", "properties": { "address": "ALKERA ROAD 3352", "lat": -37.52015863, "lon": 143.89100310000001, "sum_dwll": 2 }, "geometry": { "type": "Point", "coordinates": [ 143.89100310000001, -37.52015863 ] } },
{ "type": "Feature", "properties": { "address": "ALKIRA AVENUE 3214", "lat": -38.09370937, "lon": 144.35198070000001, "sum_dwll": 7 }, "geometry": { "type": "Point", "coordinates": [ 144.35198070000001, -38.09370937 ] } },
{ "type": "Feature", "properties": { "address": "ALKIRA PLACE 3500", "lat": -34.1998029, "lon": 142.1472374, "sum_dwll": 1 }, "geometry": { "type": "Point", "coordinates": [ 142.1472374, -34.1998029 ] } },
{ "type": "Feature", "properties": { "address": "ALKOOMI AVENUE 3215", "lat": -38.1234383, "lon": 144.3237357, "sum_dwll": 1 }, "geometry": { "type": "Point", "coordinates": [ 144.3237357, -38.1234383 ] } },
{ "type": "Feature", "properties": { "address": "ALKOOMI COURT 3975", "lat": -38.0464263, "lon": 145.264325, "sum_dwll": 10 }, "geometry": { "type": "Point", "coordinates": [ 145.264325, -38.0464263 ] } },
{ "type": "Feature", "properties": { "address": "ALLAMBEE DRIVE 3337", "lat": -37.65485808, "lon": 144.57288610000001, "sum_dwll": 3 }, "geometry": { "type": "Point", "coordinates": [ 144.57288610000001, -37.65485808 ] } },
{ "type": "Feature", "properties": { "address": "ALLAMBI STREET 3147", "lat": -37.87242085, "lon": 145.0989699, "sum_dwll": 1 }, "geometry": { "type": "Point", "coordinates": [ 145.0989699, -37.87242085 ] } },
{ "type": "Feature", "properties": { "address": "ALLAMBIE STREET 3224", "lat": -38.19353343, "lon": 144.4652989, "sum_dwll": 2 }, "geometry": { "type": "Point", "coordinates": [ 144.4652989, -38.19353343 ] } },
{ "type": "Feature", "properties": { "address": "ALLAN COURT 3029", "lat": -37.85461737, "lon": 144.7238414, "sum_dwll": 2 }, "geometry": { "type": "Point", "coordinates": [ 144.7238414, -37.85461737 ] } },
{ "type": "Feature", "properties": { "address": "ALLAN STREET 3175", "lat": -37.99128406, "lon": 145.20435670000001, "sum_dwll": 1 }, "geometry": { "type": "Point", "coordinates": [ 145.20435670000001, -37.99128406 ] } },
{ "type": "Feature", "properties": { "address": "ALLAN STREET 3284", "lat": -38.37895132, "lon": 142.226708, "sum_dwll": 1 }, "geometry": { "type": "Point", "coordinates": [ 142.226708, -38.37895132 ] } },
{ "type": "Feature", "properties": { "address": "ALLAN STREET 3357", "lat": -37.65818977, "lon": 143.8893617, "sum_dwll": 1 }, "geometry": { "type": "Point", "coordinates": [ 143.8893617, -37.65818977 ] } },
{ "type": "Feature", "properties": { "address": "ALLAN STREET 3595", "lat": -35.18679721, "lon": 143.3404309, "sum_dwll": 1 }, "geometry": { "type": "Point", "coordinates": [ 143.3404309, -35.18679721 ] } },
{ "type": "Feature", "properties": { "address": "ALLAN STREET 3764", "lat": -37.2900424, "lon": 144.9579765, "sum_dwll": 1 }, "geometry": { "type": "Point", "coordinates": [ 144.9579765, -37.2900424 ] } },
{ "type": "Feature", "properties": { "address": "ALLAN STREET 3806", "lat": -38.03539753, "lon": 145.3665677, "sum_dwll": 1 }, "geometry": { "type": "Point", "coordinates": [ 145.3665677, -38.03539753 ] } },
{ "type": "Feature", "properties": { "address": "ALLANBY GROVE 3165", "lat": -37.92241613, "lon": 145.0571353, "sum_dwll": 2 }, "geometry": { "type": "Point", "coordinates": [ 145.0571353, -37.92241613 ] } },
{ "type": "Feature", "properties": { "address": "ALLANBY WAY 3226", "lat": -38.25109563, "lon": 144.54770970000001, "sum_dwll": 9 }, "geometry": { "type": "Point", "coordinates": [ 144.54770970000001, -38.25109563 ] } },
{ "type": "Feature", "properties": { "address": "ALLANDALE ROAD 3658", "lat": -37.27761306, "lon": 145.2252819, "sum_dwll": 1 }, "geometry": { "type": "Point", "coordinates": [ 145.2252819, -37.27761306 ] } },
{ "type": "Feature", "properties": { "address": "ALLANFIELD CRESCENT 3155", "lat": -37.86262501, "lon": 145.25550480000001, "sum_dwll": 2 }, "geometry": { "type": "Point", "coordinates": [ 145.25550480000001, -37.86262501 ] } },
{ "type": "Feature", "properties": { "address": "ALLANS FLAT ROAD 3277", "lat": -38.44921493, "lon": 142.652093, "sum_dwll": 1 }, "geometry": { "type": "Point", "coordinates": [ 142.652093, -38.44921493 ] } },
{ "type": "Feature", "properties": { "address": "ALLANSFORD-WANGOOM ROAD 3277", "lat": -38.37475706, "lon": 142.57671450000001, "sum_dwll": 1 }, "geometry": { "type": "Point", "coordinates": [ 142.57671450000001, -38.37475706 ] } },
{ "type": "Feature", "properties": { "address": "ALLARD STREET 3844", "lat": -38.20220956, "lon": 146.5336302, "sum_dwll": 2 }, "geometry": { "type": "Point", "coordinates": [ 146.5336302, -38.20220956 ] } },
{ "type": "Feature", "properties": { "address": "ALLCHIN STREET 3073", "lat": -37.72873541, "lon": 145.0067236, "sum_dwll": 1 }, "geometry": { "type": "Point", "coordinates": [ 145.0067236, -37.72873541 ] } },
{ "type": "Feature", "properties": { "address": "ALLEFORD STREET 3167", "lat": -37.91527693, "lon": 145.0865141, "sum_dwll": 1 }, "geometry": { "type": "Point", "coordinates": [ 145.0865141, -37.91527693 ] } },
{ "type": "Feature", "properties": { "address": "ALLEN CRESCENT 3380", "lat": -37.05371052, "lon": 142.7795804, "sum_dwll": 2 }, "geometry": { "type": "Point", "coordinates": [ 142.7795804, -37.05371052 ] } },
{ "type": "Feature", "properties": { "address": "ALLEN STREET 3028", "lat": -37.86165257, "lon": 144.7675214, "sum_dwll": 3 }, "geometry": { "type": "Point", "coordinates": [ 144.7675214, -37.86165257 ] } },
{ "type": "Feature", "properties": { "address": "ALLEN STREET 3551", "lat": -36.6894524, "lon": 144.322163, "sum_dwll": 12 }, "geometry": { "type": "Point", "coordinates": [ 144.322163, -36.6894524 ] } },
{ "type": "Feature", "properties": { "address": "ALLEN STREET 3666", "lat": -36.74792482, "lon": 145.56182010000001, "sum_dwll": 1 }, "geometry": { "type": "Point", "coordinates": [ 145.56182010000001, -36.74792482 ] } },
{ "type": "Feature", "properties": { "address": "ALLEN STREET 3871", "lat": -38.39785354, "lon": 146.1588615, "sum_dwll": 1 }, "geometry": { "type": "Point", "coordinates": [ 146.1588615, -38.39785354 ] } },
{ "type": "Feature", "properties": { "address": "ALLENBY AVENUE 3152", "lat": -37.86201878, "lon": 145.24695850000001, "sum_dwll": 2 }, "geometry": { "type": "Point", "coordinates": [ 145.24695850000001, -37.86201878 ] } },
{ "type": "Feature", "properties": { "address": "ALLENBY ROAD 3140", "lat": -37.78063629, "lon": 145.35323220000001, "sum_dwll": 1 }, "geometry": { "type": "Point", "coordinates": [ 145.35323220000001, -37.78063629 ] } },
{ "type": "Feature", "properties": { "address": "ALLENDALE AVENUE 3750", "lat": -37.61370459, "lon": 145.0336949, "sum_dwll": 29 }, "geometry": { "type": "Point", "coordinates": [ 145.0336949, -37.61370459 ] } },
{ "type": "Feature", "properties": { "address": "ALLENDALE COURT 3048", "lat": -37.66034943, "lon": 144.9237158, "sum_dwll": 1 }, "geometry": { "type": "Point", "coordinates": [ 144.9237158, -37.66034943 ] } },
{ "type": "Feature", "properties": { "address": "ALLENS ROAD 3094", "lat": -37.71800239, "lon": 145.12836830000001, "sum_dwll": 1 }, "geometry": { "type": "Point", "coordinates": [ 145.12836830000001, -37.71800239 ] } },
{ "type": "Feature", "properties": { "address": "Allerton Way 3064", "lat": -37.61571558, "lon": 144.91696680000001, "sum_dwll": 13 }, "geometry": { "type": "Point", "coordinates": [ 144.91696680000001, -37.61571558 ] } },
{ "type": "Feature", "properties": { "address": "ALLESSI AVENUE 3750", "lat": -37.61188722, "lon": 145.01804490000001, "sum_dwll": 3 }, "geometry": { "type": "Point", "coordinates": [ 145.01804490000001, -37.61188722 ] } },
{ "type": "Feature", "properties": { "address": "ALLEYNE AVENUE 3196", "lat": -38.05789685, "lon": 145.1280888, "sum_dwll": 5 }, "geometry": { "type": "Point", "coordinates": [ 145.1280888, -38.05789685 ] } },
{ "type": "Feature", "properties": { "address": "ALLIANCE STREET 3030", "lat": -37.91798699, "lon": 144.6405882, "sum_dwll": 5 }, "geometry": { "type": "Point", "coordinates": [ 144.6405882, -37.91798699 ] } },
{ "type": "Feature", "properties": { "address": "ALLINGTON AVENUE 3173", "lat": -38.00906977, "lon": 145.17454480000001, "sum_dwll": 1 }, "geometry": { "type": "Point", "coordinates": [ 145.17454480000001, -38.00906977 ] } },
{ "type": "Feature", "properties": { "address": "ALLISON CRESCENT 3140", "lat": -37.75224895, "lon": 145.3576223, "sum_dwll": 1 }, "geometry": { "type": "Point", "coordinates": [ 145.3576223, -37.75224895 ] } },
{ "type": "Feature", "properties": { "address": "ALLISON CRESCENT 3779", "lat": -37.51755314, "lon": 145.75097410000001, "sum_dwll": 6 }, "geometry": { "type": "Point", "coordinates": [ 145.75097410000001, -37.51755314 ] } },
{ "type": "Feature", "properties": { "address": "ALLISON STREET 3953", "lat": -38.47395852, "lon": 145.9407726, "sum_dwll": 4 }, "geometry": { "type": "Point", "coordinates": [ 145.9407726, -38.47395852 ] } },
{ "type": "Feature", "properties": { "address": "ALLISTER STREET 3149", "lat": -37.86668691, "lon": 145.1208303, "sum_dwll": 1 }, "geometry": { "type": "Point", "coordinates": [ 145.1208303, -37.86668691 ] } },
{ "type": "Feature", "properties": { "address": "ALLSOP AVENUE 3754", "lat": -37.60514046, "lon": 145.0765207, "sum_dwll": 6 }, "geometry": { "type": "Point", "coordinates": [ 145.0765207, -37.60514046 ] } },
{ "type": "Feature", "properties": { "address": "ALLUMBA WAY 3750", "lat": -37.61220953, "lon": 145.0183787, "sum_dwll": 60 }, "geometry": { "type": "Point", "coordinates": [ 145.0183787, -37.61220953 ] } },
{ "type": "Feature", "properties": { "address": "ALLURA DRIVE 3350", "lat": -37.54790075, "lon": 143.80698480000001, "sum_dwll": 5 }, "geometry": { "type": "Point", "coordinates": [ 143.80698480000001, -37.54790075 ] } },
{ "type": "Feature", "properties": { "address": "ALLUVIAN WAY 3201", "lat": -38.08919782, "lon": 145.1962235, "sum_dwll": 19 }, "geometry": { "type": "Point", "coordinates": [ 145.1962235, -38.08919782 ] } },
{ "type": "Feature", "properties": { "address": "ALLWEN COURT 3169", "lat": -37.94289575, "lon": 145.1120412, "sum_dwll": 1 }, "geometry": { "type": "Point", "coordinates": [ 145.1120412, -37.94289575 ] } },
{ "type": "Feature", "properties": { "address": "ALLWOOD RISE 3280", "lat": -38.38729463, "lon": 142.4892909, "sum_dwll": 1 }, "geometry": { "type": "Point", "coordinates": [ 142.4892909, -38.38729463 ] } },
{ "type": "Feature", "properties": { "address": "ALMA AVENUE 3028", "lat": -37.86850775, "lon": 144.77525890000001, "sum_dwll": 4 }, "geometry": { "type": "Point", "coordinates": [ 144.77525890000001, -37.86850775 ] } },
{ "type": "Feature", "properties": { "address": "ALMA ROAD 3183", "lat": -37.86258615, "lon": 145.00042260000001, "sum_dwll": 11 }, "geometry": { "type": "Point", "coordinates": [ 145.00042260000001, -37.86258615 ] } },
{ "type": "Feature", "properties": { "address": "ALMA ROAD 3195", "lat": -37.98756334, "lon": 145.0922194, "sum_dwll": 1 }, "geometry": { "type": "Point", "coordinates": [ 145.0922194, -37.98756334 ] } },
{ "type": "Feature", "properties": { "address": "ALMA ROAD 3750", "lat": -37.60994554, "lon": 145.04253750000001, "sum_dwll": 3 }, "geometry": { "type": "Point", "coordinates": [ 145.04253750000001, -37.60994554 ] } },
{ "type": "Feature", "properties": { "address": "ALMA STREET 3040", "lat": -37.75718058, "lon": 144.9005875, "sum_dwll": 2 }, "geometry": { "type": "Point", "coordinates": [ 144.9005875, -37.75718058 ] } },
{ "type": "Feature", "properties": { "address": "ALMA STREET 3064", "lat": -37.59657334, "lon": 144.92901670000001, "sum_dwll": 1 }, "geometry": { "type": "Point", "coordinates": [ 144.92901670000001, -37.59657334 ] } },
{ "type": "Feature", "properties": { "address": "ALMA STREET 3065", "lat": -37.80572667, "lon": 144.9754065, "sum_dwll": 28 }, "geometry": { "type": "Point", "coordinates": [ 144.9754065, -37.80572667 ] } },
{ "type": "Feature", "properties": { "address": "ALMA STREET 3093", "lat": -37.7244804, "lon": 145.1154326, "sum_dwll": 8 }, "geometry": { "type": "Point", "coordinates": [ 145.1154326, -37.7244804 ] } },
{ "type": "Feature", "properties": { "address": "ALMA STREET 3145", "lat": -37.88284358, "lon": 145.0765478, "sum_dwll": 1 }, "geometry": { "type": "Point", "coordinates": [ 145.0765478, -37.88284358 ] } },
{ "type": "Feature", "properties": { "address": "ALMA STREET 3918", "lat": -38.34463137, "lon": 145.1745641, "sum_dwll": 1 }, "geometry": { "type": "Point", "coordinates": [ 145.1745641, -38.34463137 ] } },
{ "type": "Feature", "properties": { "address": "ALMA TERRACE 3016", "lat": -37.85148124, "lon": 144.8926204, "sum_dwll": 1 }, "geometry": { "type": "Point", "coordinates": [ 144.8926204, -37.85148124 ] } },
{ "type": "Feature", "properties": { "address": "ALMOND AVENUE 3500", "lat": -34.19397198, "lon": 142.16609360000001, "sum_dwll": 1 }, "geometry": { "type": "Point", "coordinates": [ 142.16609360000001, -34.19397198 ] } },
{ "type": "Feature", "properties": { "address": "ALMOND DRIVE 3177", "lat": -37.99009555, "lon": 145.2464928, "sum_dwll": 2 }, "geometry": { "type": "Point", "coordinates": [ 145.2464928, -37.99009555 ] } },
{ "type": "Feature", "properties": { "address": "ALMOND GROVE 3250", "lat": -38.36587542, "lon": 143.57593660000001, "sum_dwll": 2 }, "geometry": { "type": "Point", "coordinates": [ 143.57593660000001, -38.36587542 ] } },
{ "type": "Feature", "properties": { "address": "ALMONDSBURY AVENUE 3806", "lat": -38.07574753, "lon": 145.35620170000001, "sum_dwll": 15 }, "geometry": { "type": "Point", "coordinates": [ 145.35620170000001, -38.07574753 ] } },
{ "type": "Feature", "properties": { "address": "ALMONDSBURY COURT 3130", "lat": -37.81370354, "lon": 145.1652398, "sum_dwll": 2 }, "geometry": { "type": "Point", "coordinates": [ 145.1652398, -37.81370354 ] } },
{ "type": "Feature", "properties": { "address": "ALOOMBA STREET 3148", "lat": -37.87983662, "lon": 145.0982095, "sum_dwll": 1 }, "geometry": { "type": "Point", "coordinates": [ 145.0982095, -37.87983662 ] } },
{ "type": "Feature", "properties": { "address": "ALPINE GROVE 3044", "lat": -37.72405238, "lon": 144.9365293, "sum_dwll": 11 }, "geometry": { "type": "Point", "coordinates": [ 144.9365293, -37.72405238 ] } },
{ "type": "Feature", "properties": { "address": "ALPINE RIDGE DRIVE 3723", "lat": -37.10929828, "lon": 146.3499783, "sum_dwll": 2 }, "geometry": { "type": "Point", "coordinates": [ 146.3499783, -37.10929828 ] } },
{ "type": "Feature", "properties": { "address": "ALPINI PARADE 3020", "lat": -37.79485516, "lon": 144.7969614, "sum_dwll": 13 }, "geometry": { "type": "Point", "coordinates": [ 144.7969614, -37.79485516 ] } },
{ "type": "Feature", "properties": { "address": "ALSACE WAY 3335", "lat": -37.71264303, "lon": 144.7236749, "sum_dwll": 2 }, "geometry": { "type": "Point", "coordinates": [ 144.7236749, -37.71264303 ] } },
{ "type": "Feature", "properties": { "address": "ALSTON COURT 3280", "lat": -38.3696488, "lon": 142.4728476, "sum_dwll": 6 }, "geometry": { "type": "Point", "coordinates": [ 142.4728476, -38.3696488 ] } },
{ "type": "Feature", "properties": { "address": "ALTAIR AVENUE 3212", "lat": -38.01870543, "lon": 144.40966230000001, "sum_dwll": 4 }, "geometry": { "type": "Point", "coordinates": [ 144.40966230000001, -38.01870543 ] } },
{ "type": "Feature", "properties": { "address": "ALTARNUN ROAD 3910", "lat": -38.17713582, "lon": 145.2012795, "sum_dwll": 1 }, "geometry": { "type": "Point", "coordinates": [ 145.2012795, -38.17713582 ] } },
{ "type": "Feature", "properties": { "address": "ALTITUDE DRIVE 3754", "lat": -37.60101742, "lon": 145.1116414, "sum_dwll": 23 }, "geometry": { "type": "Point", "coordinates": [ 145.1116414, -37.60101742 ] } },
{ "type": "Feature", "properties": { "address": "ALTMANS ROAD 3723", "lat": -36.92574937, "lon": 146.270071, "sum_dwll": 1 }, "geometry": { "type": "Point", "coordinates": [ 146.270071, -36.92574937 ] } },
{ "type": "Feature", "properties": { "address": "ALTONA STREET 3031", "lat": -37.79734117, "lon": 144.926055, "sum_dwll": 40 }, "geometry": { "type": "Point", "coordinates": [ 144.926055, -37.79734117 ] } },
{ "type": "Feature", "properties": { "address": "ALTONA STREET 3081", "lat": -37.74676658, "lon": 145.0504005, "sum_dwll": 6 }, "geometry": { "type": "Point", "coordinates": [ 145.0504005, -37.74676658 ] } },
{ "type": "Feature", "properties": { "address": "ALVA COURT 3216", "lat": -38.20740284, "lon": 144.3061813, "sum_dwll": 1 }, "geometry": { "type": "Point", "coordinates": [ 144.3061813, -38.20740284 ] } },
{ "type": "Feature", "properties": { "address": "ALVASTON STREET 3023", "lat": -37.78089804, "lon": 144.7669865, "sum_dwll": 1 }, "geometry": { "type": "Point", "coordinates": [ 144.7669865, -37.78089804 ] } },
{ "type": "Feature", "properties": { "address": "ALVIE ROAD 3149", "lat": -37.87240627, "lon": 145.12248990000001, "sum_dwll": 1 }, "geometry": { "type": "Point", "coordinates": [ 145.12248990000001, -37.87240627 ] } },
{ "type": "Feature", "properties": { "address": "ALVINA COURT 3825", "lat": -38.20237284, "lon": 146.2592989, "sum_dwll": 1 }, "geometry": { "type": "Point", "coordinates": [ 146.2592989, -38.20237284 ] } },
{ "type": "Feature", "properties": { "address": "ALWARD AVENUE 3169", "lat": -37.93471658, "lon": 145.12026460000001, "sum_dwll": 1 }, "geometry": { "type": "Point", "coordinates": [ 145.12026460000001, -37.93471658 ] } },
{ "type": "Feature", "properties": { "address": "ALWYN STREET 3136", "lat": -37.79488016, "lon": 145.2919459, "sum_dwll": 3 }, "geometry": { "type": "Point", "coordinates": [ 145.2919459, -37.79488016 ] } },
{ "type": "Feature", "properties": { "address": "ALWYN STREET 3153", "lat": -37.84292615, "lon": 145.2625789, "sum_dwll": 2 }, "geometry": { "type": "Point", "coordinates": [ 145.2625789, -37.84292615 ] } },
{ "type": "Feature", "properties": { "address": "ALYSHA AVENUE 3975", "lat": -38.07505903, "lon": 145.2483148, "sum_dwll": 2 }, "geometry": { "type": "Point", "coordinates": [ 145.2483148, -38.07505903 ] } },
{ "type": "Feature", "properties": { "address": "ALYXIA COURT 3228", "lat": -38.32526725, "lon": 144.312506, "sum_dwll": 4 }, "geometry": { "type": "Point", "coordinates": [ 144.312506, -38.32526725 ] } },
{ "type": "Feature", "properties": { "address": "AMADEUS STREET 3024", "lat": -37.87788518, "lon": 144.6016709, "sum_dwll": 1 }, "geometry": { "type": "Point", "coordinates": [ 144.6016709, -37.87788518 ] } },
{ "type": "Feature", "properties": { "address": "AMALFI DRIVE 3802", "lat": -37.97708718, "lon": 145.2434108, "sum_dwll": 1 }, "geometry": { "type": "Point", "coordinates": [ 145.2434108, -37.97708718 ] } },
{ "type": "Feature", "properties": { "address": "AMALFI WAY 3223", "lat": -38.13452092, "lon": 144.70591060000001, "sum_dwll": 6 }, "geometry": { "type": "Point", "coordinates": [ 144.70591060000001, -38.13452092 ] } },
{ "type": "Feature", "properties": { "address": "AMANDA DRIVE 3551", "lat": -36.75188229, "lon": 144.2035229, "sum_dwll": 5 }, "geometry": { "type": "Point", "coordinates": [ 144.2035229, -36.75188229 ] } },
{ "type": "Feature", "properties": { "address": "AMARA GROVE 3975", "lat": -38.07639371, "lon": 145.24311370000001, "sum_dwll": 8 }, "geometry": { "type": "Point", "coordinates": [ 145.24311370000001, -38.07639371 ] } },
{ "type": "Feature", "properties": { "address": "AMARANTH AVENUE 3025", "lat": -37.8300415, "lon": 144.8543049, "sum_dwll": 2 }, "geometry": { "type": "Point", "coordinates": [ 144.8543049, -37.8300415 ] } },
{ "type": "Feature", "properties": { "address": "AMARATH CIRCUIT 3076", "lat": -37.62885978, "lon": 145.0020537, "sum_dwll": 11 }, "geometry": { "type": "Point", "coordinates": [ 145.0020537, -37.62885978 ] } },
{ "type": "Feature", "properties": { "address": "AMAROO DRIVE 3842", "lat": -38.32176989, "lon": 146.4206926, "sum_dwll": 3 }, "geometry": { "type": "Point", "coordinates": [ 146.4206926, -38.32176989 ] } },
{ "type": "Feature", "properties": { "address": "AMAROO STREET 3148", "lat": -37.87852972, "lon": 145.0999982, "sum_dwll": 1 }, "geometry": { "type": "Point", "coordinates": [ 145.0999982, -37.87852972 ] } },
{ "type": "Feature", "properties": { "address": "AMBARELLA WAY 3217", "lat": -38.23940969, "lon": 144.3394255, "sum_dwll": 2 }, "geometry": { "type": "Point", "coordinates": [ 144.3394255, -38.23940969 ] } },
{ "type": "Feature", "properties": { "address": "AMBER AVENUE 3222", "lat": -38.17282246, "lon": 144.5485084, "sum_dwll": 10 }, "geometry": { "type": "Point", "coordinates": [ 144.5485084, -38.17282246 ] } },
{ "type": "Feature", "properties": { "address": "AMBER AVENUE 3672", "lat": -36.56290483, "lon": 145.9717358, "sum_dwll": 2 }, "geometry": { "type": "Point", "coordinates": [ 145.9717358, -36.56290483 ] } },
{ "type": "Feature", "properties": { "address": "AMBER LANE 3981", "lat": -38.1924556, "lon": 145.5002681, "sum_dwll": 5 }, "geometry": { "type": "Point", "coordinates": [ 145.5002681, -38.1924556 ] } },
{ "type": "Feature", "properties": { "address": "AMBER WAY 3338", "lat": -37.71426883, "lon": 144.5868232, "sum_dwll": 20 }, "geometry": { "type": "Point", "coordinates": [ 144.5868232, -37.71426883 ] } },
{ "type": "Feature", "properties": { "address": "AMBER WAY 3809", "lat": -38.07290369, "lon": 145.4264488, "sum_dwll": 6 }, "geometry": { "type": "Point", "coordinates": [ 145.4264488, -38.07290369 ] } },
{ "type": "Feature", "properties": { "address": "AMBERLY DRIVE 3818", "lat": -38.10735534, "lon": 145.8464953, "sum_dwll": 6 }, "geometry": { "type": "Point", "coordinates": [ 145.8464953, -38.10735534 ] } },
{ "type": "Feature", "properties": { "address": "AMBERLY PARK DRIVE 3805", "lat": -38.04758588, "lon": 145.2894733, "sum_dwll": 1 }, "geometry": { "type": "Point", "coordinates": [ 145.2894733, -38.04758588 ] } },
{ "type": "Feature", "properties": { "address": "AMBIANCE CRESCENT 3805", "lat": -38.07160077, "lon": 145.31911360000001, "sum_dwll": 1 }, "geometry": { "type": "Point", "coordinates": [ 145.31911360000001, -38.07160077 ] } },
{ "type": "Feature", "properties": { "address": "AMBLE WAY 3338", "lat": -37.73760556, "lon": 144.5747218, "sum_dwll": 3 }, "geometry": { "type": "Point", "coordinates": [ 144.5747218, -37.73760556 ] } },
{ "type": "Feature", "properties": { "address": "AMBLESIDE AVENUE 3024", "lat": -37.88881508, "lon": 144.6086822, "sum_dwll": 24 }, "geometry": { "type": "Point", "coordinates": [ 144.6086822, -37.88881508 ] } },
{ "type": "Feature", "properties": { "address": "AMBLESIDE PLACE 3023", "lat": -37.76025788, "lon": 144.7875413, "sum_dwll": 1 }, "geometry": { "type": "Point", "coordinates": [ 144.7875413, -37.76025788 ] } },
{ "type": "Feature", "properties": { "address": "AMBRIDGE STREET 3754", "lat": -37.59648259, "lon": 145.0848087, "sum_dwll": 3 }, "geometry": { "type": "Point", "coordinates": [ 145.0848087, -37.59648259 ] } },
{ "type": "Feature", "properties": { "address": "AMBRIE CRESCENT 3174", "lat": -37.95285074, "lon": 145.1749, "sum_dwll": 9 }, "geometry": { "type": "Point", "coordinates": [ 145.1749, -37.95285074 ] } },
{ "type": "Feature", "properties": { "address": "AMBROSE ROAD 3840", "lat": -38.24649226, "lon": 146.453319, "sum_dwll": 1 }, "geometry": { "type": "Point", "coordinates": [ 146.453319, -38.24649226 ] } },
{ "type": "Feature", "properties": { "address": "AMBROSIA CLOSE 3076", "lat": -37.63312337, "lon": 145.0138546, "sum_dwll": 15 }, "geometry": { "type": "Point", "coordinates": [ 145.0138546, -37.63312337 ] } },
{ "type": "Feature", "properties": { "address": "AMBROSIA DRIVE 3217", "lat": -38.23872155, "lon": 144.3661448, "sum_dwll": 8 }, "geometry": { "type": "Point", "coordinates": [ 144.3661448, -38.23872155 ] } },
{ "type": "Feature", "properties": { "address": "AMBROSIA WAY 3753", "lat": -37.46998073, "lon": 144.9540695, "sum_dwll": 4 }, "geometry": { "type": "Point", "coordinates": [ 144.9540695, -37.46998073 ] } },
{ "type": "Feature", "properties": { "address": "AMDURA ROAD 3109", "lat": -37.79355156, "lon": 145.16929160000001, "sum_dwll": 3 }, "geometry": { "type": "Point", "coordinates": [ 145.16929160000001, -37.79355156 ] } },
{ "type": "Feature", "properties": { "address": "AMELIA CRESCENT 3109", "lat": -37.79307179, "lon": 145.1671771, "sum_dwll": 6 }, "geometry": { "type": "Point", "coordinates": [ 145.1671771, -37.79307179 ] } },
{ "type": "Feature", "properties": { "address": "AMELIA PLACE 3337", "lat": -37.6668981, "lon": 144.5357965, "sum_dwll": 7 }, "geometry": { "type": "Point", "coordinates": [ 144.5357965, -37.6668981 ] } },
{ "type": "Feature", "properties": { "address": "AMELIE PARADE 3029", "lat": -37.85123453, "lon": 144.6624894, "sum_dwll": 13 }, "geometry": { "type": "Point", "coordinates": [ 144.6624894, -37.85123453 ] } },
{ "type": "Feature", "properties": { "address": "AMES AVENUE 3163", "lat": -37.89151133, "lon": 145.0619113, "sum_dwll": 3 }, "geometry": { "type": "Point", "coordinates": [ 145.0619113, -37.89151133 ] } },
{ "type": "Feature", "properties": { "address": "AMESBURY AVENUE 3024", "lat": -37.89302392, "lon": 144.6100959, "sum_dwll": 26 }, "geometry": { "type": "Point", "coordinates": [ 144.6100959, -37.89302392 ] } },
{ "type": "Feature", "properties": { "address": "AMESBURY AVENUE 3152", "lat": -37.85477794, "lon": 145.236314, "sum_dwll": 1 }, "geometry": { "type": "Point", "coordinates": [ 145.236314, -37.85477794 ] } },
{ "type": "Feature", "properties": { "address": "AMESBURY WAY 3978", "lat": -38.07810495, "lon": 145.3501455, "sum_dwll": 10 }, "geometry": { "type": "Point", "coordinates": [ 145.3501455, -38.07810495 ] } },
{ "type": "Feature", "properties": { "address": "AMICO WALK 3175", "lat": -37.99980314, "lon": 145.1992905, "sum_dwll": 9 }, "geometry": { "type": "Point", "coordinates": [ 145.1992905, -37.99980314 ] } },
{ "type": "Feature", "properties": { "address": "AMICUS STREET 3226", "lat": -38.23803489, "lon": 144.5419504, "sum_dwll": 12 }, "geometry": { "type": "Point", "coordinates": [ 144.5419504, -38.23803489 ] } },
{ "type": "Feature", "properties": { "address": "AMIETS ROAD 3953", "lat": -38.37033369, "lon": 145.9434987, "sum_dwll": 1 }, "geometry": { "type": "Point", "coordinates": [ 145.9434987, -38.37033369 ] } },
{ "type": "Feature", "properties": { "address": "AMITY PLACE 3429", "lat": -37.55982969, "lon": 144.70241290000001, "sum_dwll": 5 }, "geometry": { "type": "Point", "coordinates": [ 144.70241290000001, -37.55982969 ] } },
{ "type": "Feature", "properties": { "address": "AMLEY COURT 3115", "lat": -37.76019752, "lon": 145.2909387, "sum_dwll": 1 }, "geometry": { "type": "Point", "coordinates": [ 145.2909387, -37.76019752 ] } },
{ "type": "Feature", "properties": { "address": "AMLEY RISE 3156", "lat": -37.90836819, "lon": 145.2851344, "sum_dwll": 1 }, "geometry": { "type": "Point", "coordinates": [ 145.2851344, -37.90836819 ] } },
{ "type": "Feature", "properties": { "address": "AMLYN COURT 3757", "lat": -37.47493507, "lon": 145.24823670000001, "sum_dwll": 1 }, "geometry": { "type": "Point", "coordinates": [ 145.24823670000001, -37.47493507 ] } },
{ "type": "Feature", "properties": { "address": "AMORE DRIVE 3020", "lat": -37.79492956, "lon": 144.7955566, "sum_dwll": 7 }, "geometry": { "type": "Point", "coordinates": [ 144.7955566, -37.79492956 ] } },
{ "type": "Feature", "properties": { "address": "AMPELON STREET 3024", "lat": -37.87125384, "lon": 144.5961956, "sum_dwll": 4 }, "geometry": { "type": "Point", "coordinates": [ 144.5961956, -37.87125384 ] } },
{ "type": "Feature", "properties": { "address": "AMRON STREET 3196", "lat": -38.04125396, "lon": 145.13193810000001, "sum_dwll": 6 }, "geometry": { "type": "Point", "coordinates": [ 145.13193810000001, -38.04125396 ] } },
{ "type": "Feature", "properties": { "address": "AMSTERDAM AVENUE 3029", "lat": -37.84160398, "lon": 144.6616834, "sum_dwll": 20 }, "geometry": { "type": "Point", "coordinates": [ 144.6616834, -37.84160398 ] } },
{ "type": "Feature", "properties": { "address": "ANAKIE ROAD 3214", "lat": -38.08768657, "lon": 144.3362559, "sum_dwll": 1 }, "geometry": { "type": "Point", "coordinates": [ 144.3362559, -38.08768657 ] } },
{ "type": "Feature", "properties": { "address": "ANAKIE ROAD 3215", "lat": -38.10410875, "lon": 144.332844, "sum_dwll": 8 }, "geometry": { "type": "Point", "coordinates": [ 144.332844, -38.10410875 ] } },
{ "type": "Feature", "properties": { "address": "ANAMA STREET 3088", "lat": -37.70133837, "lon": 145.096328, "sum_dwll": 1 }, "geometry": { "type": "Point", "coordinates": [ 145.096328, -37.70133837 ] } },
{ "type": "Feature", "properties": { "address": "ANASTASIA COURT 3037", "lat": -37.70096438, "lon": 144.74533120000001, "sum_dwll": 17 }, "geometry": { "type": "Point", "coordinates": [ 144.74533120000001, -37.70096438 ] } },
{ "type": "Feature", "properties": { "address": "ANCHOR CRESCENT 3030", "lat": -37.91593207, "lon": 144.77888390000001, "sum_dwll": 10 }, "geometry": { "type": "Point", "coordinates": [ 144.77888390000001, -37.91593207 ] } },
{ "type": "Feature", "properties": { "address": "ANCHORAGE AVENUE 3936", "lat": -38.30505673, "lon": 145.00716360000001, "sum_dwll": 2 }, "geometry": { "type": "Point", "coordinates": [ 145.00716360000001, -38.30505673 ] } },
{ "type": "Feature", "properties": { "address": "ANCHORAGE ROAD 3922", "lat": -38.46132934, "lon": 145.194161, "sum_dwll": 1 }, "geometry": { "type": "Point", "coordinates": [ 145.194161, -38.46132934 ] } },
{ "type": "Feature", "properties": { "address": "ANCHORAGE WAY 3224", "lat": -38.20294585, "lon": 144.46007030000001, "sum_dwll": 11 }, "geometry": { "type": "Point", "coordinates": [ 144.46007030000001, -38.20294585 ] } },
{ "type": "Feature", "properties": { "address": "ANCHORAGE WAY 3723", "lat": -37.18121016, "lon": 146.0740423, "sum_dwll": 4 }, "geometry": { "type": "Point", "coordinates": [ 146.0740423, -37.18121016 ] } },
{ "type": "Feature", "properties": { "address": "ANCHORAGE WAY 3730", "lat": -36.00333988, "lon": 146.0244936, "sum_dwll": 1 }, "geometry": { "type": "Point", "coordinates": [ 146.0244936, -36.00333988 ] } },
{ "type": "Feature", "properties": { "address": "ANCRE AVENUE 3918", "lat": -38.34876866, "lon": 145.1745875, "sum_dwll": 1 }, "geometry": { "type": "Point", "coordinates": [ 145.1745875, -38.34876866 ] } },
{ "type": "Feature", "properties": { "address": "ANDAMAN PLACE 3030", "lat": -37.89757974, "lon": 144.7212099, "sum_dwll": 6 }, "geometry": { "type": "Point", "coordinates": [ 144.7212099, -37.89757974 ] } },
{ "type": "Feature", "properties": { "address": "ANDERSON AVENUE 3165", "lat": -37.90814925, "lon": 145.0567078, "sum_dwll": 2 }, "geometry": { "type": "Point", "coordinates": [ 145.0567078, -37.90814925 ] } },
{ "type": "Feature", "properties": { "address": "ANDERSON AVENUE 3959", "lat": -38.83184287, "lon": 146.13342230000001, "sum_dwll": 2 }, "geometry": { "type": "Point", "coordinates": [ 146.13342230000001, -38.83184287 ] } },
{ "type": "Feature", "properties": { "address": "Anderson Close 3976", "lat": -38.02810765, "lon": 145.25996660000001, "sum_dwll": 1 }, "geometry": { "type": "Point", "coordinates": [ 145.25996660000001, -38.02810765 ] } },
{ "type": "Feature", "properties": { "address": "ANDERSON COURT 3730", "lat": -36.00621022, "lon": 146.05070180000001, "sum_dwll": 1 }, "geometry": { "type": "Point", "coordinates": [ 146.05070180000001, -36.00621022 ] } },
{ "type": "Feature", "properties": { "address": "ANDERSON PARADE 3984", "lat": -38.41276563, "lon": 145.4360853, "sum_dwll": 1 }, "geometry": { "type": "Point", "coordinates": [ 145.4360853, -38.41276563 ] } },
{ "type": "Feature", "properties": { "address": "ANDERSON ROAD 3020", "lat": -37.78675641, "lon": 144.827097, "sum_dwll": 1 }, "geometry": { "type": "Point", "coordinates": [ 144.827097, -37.78675641 ] } },
{ "type": "Feature", "properties": { "address": "ANDERSON ROAD 3071", "lat": -37.75477116, "lon": 144.9811746, "sum_dwll": 16 }, "geometry": { "type": "Point", "coordinates": [ 144.9811746, -37.75477116 ] } },
{ "type": "Feature", "properties": { "address": "ANDERSON ROAD 3777", "lat": -37.6641013, "lon": 145.54584790000001, "sum_dwll": 3 }, "geometry": { "type": "Point", "coordinates": [ 145.54584790000001, -37.6641013 ] } },
{ "type": "Feature", "properties": { "address": "ANDERSON ROAD 3922", "lat": -38.45365861, "lon": 145.2201132, "sum_dwll": 8 }, "geometry": { "type": "Point", "coordinates": [ 145.2201132, -38.45365861 ] } },
{ "type": "Feature", "properties": { "address": "ANDERSON STREET 3075", "lat": -37.66396207, "lon": 145.0206869, "sum_dwll": 6 }, "geometry": { "type": "Point", "coordinates": [ 145.0206869, -37.66396207 ] } },
{ "type": "Feature", "properties": { "address": "ANDERSON STREET 3106", "lat": -37.75660992, "lon": 145.130456, "sum_dwll": 37 }, "geometry": { "type": "Point", "coordinates": [ 145.130456, -37.75660992 ] } },
{ "type": "Feature", "properties": { "address": "ANDERSON STREET 3140", "lat": -37.75457963, "lon": 145.3554393, "sum_dwll": 3 }, "geometry": { "type": "Point", "coordinates": [ 145.3554393, -37.75457963 ] } },
{ "type": "Feature", "properties": { "address": "ANDERSON STREET 3145", "lat": -37.86621888, "lon": 145.0431604, "sum_dwll": 3 }, "geometry": { "type": "Point", "coordinates": [ 145.0431604, -37.86621888 ] } },
{ "type": "Feature", "properties": { "address": "ANDERSON STREET 3199", "lat": -38.1348868, "lon": 145.1336876, "sum_dwll": 1 }, "geometry": { "type": "Point", "coordinates": [ 145.1336876, -38.1348868 ] } },
{ "type": "Feature", "properties": { "address": "ANDERSON STREET 3231", "lat": -38.45738909, "lon": 144.11083830000001, "sum_dwll": 1 }, "geometry": { "type": "Point", "coordinates": [ 144.11083830000001, -38.45738909 ] } },
{ "type": "Feature", "properties": { "address": "ANDERSON STREET 3242", "lat": -38.33336041, "lon": 143.7863764, "sum_dwll": 3 }, "geometry": { "type": "Point", "coordinates": [ 143.7863764, -38.33336041 ] } },
{ "type": "Feature", "properties": { "address": "ANDERSON STREET 3550", "lat": -36.74859686, "lon": 144.27476390000001, "sum_dwll": 3 }, "geometry": { "type": "Point", "coordinates": [ 144.27476390000001, -36.74859686 ] } },
{ "type": "Feature", "properties": { "address": "ANDERSON STREET 3666", "lat": -36.75555509, "lon": 145.5737981, "sum_dwll": 4 }, "geometry": { "type": "Point", "coordinates": [ 145.5737981, -36.75555509 ] } },
{ "type": "Feature", "properties": { "address": "ANDERSON STREET 3858", "lat": -37.97697955, "lon": 146.79103090000001, "sum_dwll": 1 }, "geometry": { "type": "Point", "coordinates": [ 146.79103090000001, -37.97697955 ] } },
{ "type": "Feature", "properties": { "address": "ANDERSONS CREEK ROAD 3109", "lat": -37.76660586, "lon": 145.17101030000001, "sum_dwll": 2 }, "geometry": { "type": "Point", "coordinates": [ 145.17101030000001, -37.76660586 ] } },
{ "type": "Feature", "properties": { "address": "ANDERSONS INLET ROAD 3951", "lat": -38.47768908, "lon": 145.7339908, "sum_dwll": 1 }, "geometry": { "type": "Point", "coordinates": [ 145.7339908, -38.47768908 ] } },
{ "type": "Feature", "properties": { "address": "ANDERSONS VIEW ROAD 3956", "lat": -38.67305536, "lon": 145.79405180000001, "sum_dwll": 1 }, "geometry": { "type": "Point", "coordinates": [ 145.79405180000001, -38.67305536 ] } },
{ "type": "Feature", "properties": { "address": "ANDERTONS ROAD 3277", "lat": -38.37543572, "lon": 142.66429460000001, "sum_dwll": 1 }, "geometry": { "type": "Point", "coordinates": [ 142.66429460000001, -38.37543572 ] } },
{ "type": "Feature", "properties": { "address": "ANDIE WAY 3029", "lat": -37.83944686, "lon": 144.6549035, "sum_dwll": 1 }, "geometry": { "type": "Point", "coordinates": [ 144.6549035, -37.83944686 ] } },
{ "type": "Feature", "properties": { "address": "ANDREA STREET 3021", "lat": -37.74783226, "lon": 144.7966722, "sum_dwll": 1 }, "geometry": { "type": "Point", "coordinates": [ 144.7966722, -37.74783226 ] } },
{ "type": "Feature", "properties": { "address": "ANDREA STREET 3941", "lat": -38.38401831, "lon": 144.7941143, "sum_dwll": 3 }, "geometry": { "type": "Point", "coordinates": [ 144.7941143, -38.38401831 ] } },
{ "type": "Feature", "properties": { "address": "ANDRETTI AVENUE 3975", "lat": -38.07039755, "lon": 145.26156760000001, "sum_dwll": 29 }, "geometry": { "type": "Point", "coordinates": [ 145.26156760000001, -38.07039755 ] } },
{ "type": "Feature", "properties": { "address": "ANDREW COURT 3805", "lat": -38.00711241, "lon": 145.3113582, "sum_dwll": 1 }, "geometry": { "type": "Point", "coordinates": [ 145.3113582, -38.00711241 ] } },
{ "type": "Feature", "properties": { "address": "ANDREW COURT 3915", "lat": -38.30450633, "lon": 145.1709321, "sum_dwll": 1 }, "geometry": { "type": "Point", "coordinates": [ 145.1709321, -38.30450633 ] } },
{ "type": "Feature", "properties": { "address": "ANDREW ROAD 3021", "lat": -37.73545285, "lon": 144.785054, "sum_dwll": 2 }, "geometry": { "type": "Point", "coordinates": [ 144.785054, -37.73545285 ] } },
{ "type": "Feature", "properties": { "address": "ANDREW STREET 3138", "lat": -37.78031071, "lon": 145.3100623, "sum_dwll": 4 }, "geometry": { "type": "Point", "coordinates": [ 145.3100623, -37.78031071 ] } },
{ "type": "Feature", "properties": { "address": "ANDREW STREET 3149", "lat": -37.85781971, "lon": 145.1234596, "sum_dwll": 2 }, "geometry": { "type": "Point", "coordinates": [ 145.1234596, -37.85781971 ] } },
{ "type": "Feature", "properties": { "address": "ANDREW STREET 3166", "lat": -37.90810315, "lon": 145.0941287, "sum_dwll": 1 }, "geometry": { "type": "Point", "coordinates": [ 145.0941287, -37.90810315 ] } },
{ "type": "Feature", "properties": { "address": "ANDREW STREET 3181", "lat": -37.85166035, "lon": 144.9863931, "sum_dwll": 2 }, "geometry": { "type": "Point", "coordinates": [ 144.9863931, -37.85166035 ] } },
{ "type": "Feature", "properties": { "address": "ANDREW STREET 3363", "lat": -37.421102, "lon": 143.8865817, "sum_dwll": 2 }, "geometry": { "type": "Point", "coordinates": [ 143.8865817, -37.421102 ] } },
{ "type": "Feature", "properties": { "address": "ANDREW STREET 3550", "lat": -36.72573162, "lon": 144.3122747, "sum_dwll": 16 }, "geometry": { "type": "Point", "coordinates": [ 144.3122747, -36.72573162 ] } },
{ "type": "Feature", "properties": { "address": "ANDREW STREET 3909", "lat": -37.86310281, "lon": 148.0269392, "sum_dwll": 1 }, "geometry": { "type": "Point", "coordinates": [ 148.0269392, -37.86310281 ] } },
{ "type": "Feature", "properties": { "address": "ANDREWS LANE 3749", "lat": -36.33468731, "lon": 146.850698, "sum_dwll": 1 }, "geometry": { "type": "Point", "coordinates": [ 146.850698, -36.33468731 ] } },
{ "type": "Feature", "properties": { "address": "ANDREWS STREET 3015", "lat": -37.82574078, "lon": 144.8746688, "sum_dwll": 10 }, "geometry": { "type": "Point", "coordinates": [ 144.8746688, -37.82574078 ] } },
{ "type": "Feature", "properties": { "address": "ANDREWS STREET 3125", "lat": -37.84835011, "lon": 145.1282202, "sum_dwll": 1 }, "geometry": { "type": "Point", "coordinates": [ 145.1282202, -37.84835011 ] } },
{ "type": "Feature", "properties": { "address": "ANDREWS STREET 3218", "lat": -38.13571333, "lon": 144.3429582, "sum_dwll": 1 }, "geometry": { "type": "Point", "coordinates": [ 144.3429582, -38.13571333 ] } },
{ "type": "Feature", "properties": { "address": "ANDROMEDA AVENUE 3029", "lat": -37.85105001, "lon": 144.7415261, "sum_dwll": 12 }, "geometry": { "type": "Point", "coordinates": [ 144.7415261, -37.85105001 ] } },
{ "type": "Feature", "properties": { "address": "ANELIDA STREET 3941", "lat": -38.37695179, "lon": 144.78769890000001, "sum_dwll": 1 }, "geometry": { "type": "Point", "coordinates": [ 144.78769890000001, -38.37695179 ] } },
{ "type": "Feature", "properties": { "address": "ANFIELD COURT 3809", "lat": -38.06762598, "lon": 145.4239153, "sum_dwll": 10 }, "geometry": { "type": "Point", "coordinates": [ 145.4239153, -38.06762598 ] } },
{ "type": "Feature", "properties": { "address": "ANGAS COURT 3429", "lat": -37.59064238, "lon": 144.709709, "sum_dwll": 1 }, "geometry": { "type": "Point", "coordinates": [ 144.709709, -37.59064238 ] } },
{ "type": "Feature", "properties": { "address": "ANGEL GROVE 3498", "lat": -34.22817827, "lon": 142.1567062, "sum_dwll": 1 }, "geometry": { "type": "Point", "coordinates": [ 142.1567062, -34.22817827 ] } },
{ "type": "Feature", "properties": { "address": "ANGEL WAY 3753", "lat": -37.47649485, "lon": 144.9518561, "sum_dwll": 4 }, "geometry": { "type": "Point", "coordinates": [ 144.9518561, -37.47649485 ] } },
{ "type": "Feature", "properties": { "address": "ANGELINE WAY 3064", "lat": -37.5891128, "lon": 144.9041489, "sum_dwll": 11 }, "geometry": { "type": "Point", "coordinates": [ 144.9041489, -37.5891128 ] } },
{ "type": "Feature", "properties": { "address": "ANGLER PARADE 3032", "lat": -37.78035583, "lon": 144.90145810000001, "sum_dwll": 2 }, "geometry": { "type": "Point", "coordinates": [ 144.90145810000001, -37.78035583 ] } },